{"geometry": {"type": "Point", "coordinates": [-0.4725390077, 52.0305709839]}, "type": "Feature", "id": "SG_0j38SC9wgiREv11uIzZh49_52.030571_-0.472539@1300740013", "properties": {"province": "Bedfordshire", "city": "Bedford", "name": "Country Wide Sheds Ltd.", "tags": ["shed", "joiner", "greenhouse", "carpenter"], "country": "GB", "classifiers": [{"category": "Manufacturing", "type": "Manufacturing & Wholesale Goods", "subcategory": "Buildings"}, {"category": "Building & Trades", "type": "Services", "subcategory": "Construction"}], "phone": "+44 1525 862232", "href": "http://api.simplegeo.com/1.0/features/SG_0j38SC9wgiREv11uIzZh49_52.030571_-0.472539@1300740013.json", "address": "Unit 6a Woodside Farm, Clophill Road, Maulden", "owner": "simplegeo", "postcode": "MK45 2AE"}}
{"geometry": {"type": "Point", "coordinates": [-0.4949940145, 52.0279464722]}, "type": "Feature", "id": "SG_1TuEK6R9TeS9lfO66ORnhJ_52.027946_-0.494994@1300740015", "properties": {"province": "Bedfordshire", "city": "Bedford", "name": "Guardian Environmental Services Ltd.", "tags": ["refrigeration", "air conditioning"], "country": "GB", "classifiers": [{"category": "Home & Garden", "type": "Retail Goods", "subcategory": "Household Appliances"}], "phone": "+44 1525 862208", "href": "http://api.simplegeo.com/1.0/features/SG_1TuEK6R9TeS9lfO66ORnhJ_52.027946_-0.494994@1300740015.json", "address": "117 Clockhill Road, Maulden", "owner": "simplegeo", "postcode": "MK45 2AE"}}
{"geometry": {"type": "Point", "coordinates": [-0.4353330135, 52.0262451172]}, "type": "Feature", "id": "SG_61HS9gdJy3RS7SHh5Ap30R_52.026245_-0.435333@1300740015", "properties": {"province": "Bedfordshire", "city": "Bedford", "name": "CNA Executive Search", "tags": ["consultant"], "country": "GB", "classifiers": [{"category": "Professional", "type": "Services", "subcategory": "Employment Agencies"}], "phone": "+44 1525 862424", "href": "http://api.simplegeo.com/1.0/features/SG_61HS9gdJy3RS7SHh5Ap30R_52.026245_-0.435333@1300740015.json", "address": "117 Clophill Rd, Maulden", "owner": "simplegeo", "postcode": "MK45 2AE"}}
{"geometry": {"type": "Point", "coordinates": [-0.4725390077, 52.0305709839]}, "type": "Feature", "id": "SG_7BEmxafnb3rOf0vwTPWqzb_52.030571_-0.472539@1300740015", "properties": {"province": "Bedfordshire", "city": "Bedford", "name": "D E L Forklift", "tags": ["equipment"], "country": "GB", "classifiers": [{"category": "Building & Trades", "type": "Services", "subcategory": "Construction"}], "href": "http://api.simplegeo.com/1.0/features/SG_7BEmxafnb3rOf0vwTPWqzb_52.030571_-0.472539@1300740015.json", "address": "Woodside Farm, Clophill Road, Maulden", "owner": "simplegeo", "postcode": "MK45 2AE"}}
{"geometry": {"type": "Point", "coordinates": [-0.4725390077, 52.0305709839]}, "type": "Feature", "id": "SG_4oqqF0gqdwO9sX4XEkQ4Ko_52.030571_-0.472539@1300740015", "properties": {"province": "Bedfordshire", "city": "Bedford", "name": "Executive Travel", "tags": ["chauffeur", "driven", "car"], "country": "GB", "classifiers": [{"category": "Autos & Motor Vehicles", "type": "Retail Goods", "subcategory": "Motorcycle Sales"}], "phone": "+44 1525 862201", "href": "http://api.simplegeo.com/1.0/features/SG_4oqqF0gqdwO9sX4XEkQ4Ko_52.030571_-0.472539@1300740015.json", "address": "Clophill Road, Maulden", "owner": "simplegeo", "postcode": "MK45 2AE"}}
{"geometry": {"type": "Point", "coordinates": [-0.4307369888, 52.0262794495]}, "type": "Feature", "id": "SG_50o3nQpazAFFndxwkDZG1V_52.026279_-0.430737@1300740015", "properties": {"province": "Bedfordshire", "city": "Bedford", "name": "B & R Haulage", "tags": ["haulage", "road"], "country": "GB", "classifiers": [{"category": "Freight", "type": "Transportation", "subcategory": ""}], "phone": "+44 1525 862525", "href": "http://api.simplegeo.com/1.0/features/SG_50o3nQpazAFFndxwkDZG1V_52.026279_-0.430737@1300740015.json", "address": "131 Clophill Road, Maulden", "owner": "simplegeo", "postcode": "MK45 2AE"}}
{"geometry": {"type": "Point", "coordinates": [-0.4949940145, 52.0279464722]}, "type": "Feature", "id": "SG_3wAeFDXwQ80SzH2QmPBAhb_52.027946_-0.494994@1300740015", "properties": {"province": "Bedfordshire", "city": "Bedford", "name": "Woodside Pine Furniture", "country": "GB", "classifiers": [{"category": "Home & Garden", "type": "Retail Goods", "subcategory": "Furniture"}], "phone": "+44 1525 862433", "href": "http://api.simplegeo.com/1.0/features/SG_3wAeFDXwQ80SzH2QmPBAhb_52.027946_-0.494994@1300740015.json", "address": "Unit 7b Woodside Farm, Clophill Rd", "owner": "simplegeo", "postcode": "MK45 2AE"}}
{"geometry": {"type": "Point", "coordinates": [-0.4725390077, 52.0305709839]}, "type": "Feature", "id": "SG_18Ncj8ChPmbR2RJ4h6PZnE_52.030571_-0.472539@1300740015", "properties": {"province": "Bedfordshire", "city": "Bedford", "name": "Acorn Distribution", "tags": ["distribution"], "country": "GB", "classifiers": [{"category": "Professional", "type": "Services", "subcategory": "Business Services"}], "href": "http://api.simplegeo.com/1.0/features/SG_18Ncj8ChPmbR2RJ4h6PZnE_52.030571_-0.472539@1300740015.json", "address": "Sunnyside Nurseries, Clophill Road, Maulden", "owner": "simplegeo", "postcode": "MK45 2AE"}}
{"geometry": {"type": "Point", "coordinates": [-0.4313139915, 52.0262908936]}, "type": "Feature", "id": "SG_5DBO2zp01WKy2Vj1iHM3P2_52.026291_-0.431314@1300740015", "properties": {"province": "Bedfordshire", "city": "Bedford", "name": "Evergreen Displays (Growers) Ltd", "tags": ["landscape", "contractor"], "country": "GB", "classifiers": [{"category": "Building & Trades", "type": "Services", "subcategory": "Landscaping Services"}], "phone": "+44 1525 860330", "href": "http://api.simplegeo.com/1.0/features/SG_5DBO2zp01WKy2Vj1iHM3P2_52.026291_-0.431314@1300740015.json", "address": "129 Clophill Rd, Maulden", "owner": "simplegeo", "postcode": "MK45 2AE"}}
{"geometry": {"type": "Point", "coordinates": [-0.4354299903, 52.0259857178]}, "type": "Feature", "id": "SG_1XhYXeVPZo9n1Jw2JWxUa2_52.025986_-0.435430@1300740015", "properties": {"province": "Bedfordshire", "city": "Bedford", "name": "Trevor Hazzard Associates", "tags": ["architectural"], "country": "GB", "classifiers": [{"category": "Real Estate", "type": "Services", "subcategory": "Architect"}], "phone": "+44 1525 860602", "href": "http://api.simplegeo.com/1.0/features/SG_1XhYXeVPZo9n1Jw2JWxUa2_52.025986_-0.435430@1300740015.json", "address": "136 Clophill Road, Maulden", "owner": "simplegeo", "postcode": "MK45 2AE"}}
{"geometry": {"type": "Point", "coordinates": [-0.4353330135, 52.0262451172]}, "type": "Feature", "id": "SG_2xzq5Cp65FKwF1E4xj8To9_52.026245_-0.435333@1300740015", "properties": {"province": "Bedfordshire", "city": "Bedford", "name": "Jack Burgoine Florist", "country": "GB", "classifiers": [{"category": "Shopping", "type": "Retail Goods", "subcategory": "Florist"}], "phone": "+44 1525 860366", "href": "http://api.simplegeo.com/1.0/features/SG_2xzq5Cp65FKwF1E4xj8To9_52.026245_-0.435333@1300740015.json", "address": "117 Clophill Road, Maulden", "owner": "simplegeo", "postcode": "MK45 2AE"}}
{"geometry": {"type": "Point", "coordinates": [-0.4725390077, 52.0305709839]}, "type": "Feature", "id": "SG_7BCIRPNAESb1vhTDSZcucu_52.030571_-0.472539@1300740015", "properties": {"province": "Bedfordshire", "city": "Bedford", "name": "Oakley Flowers", "tags": ["import", "export", "agent"], "country": "GB", "classifiers": [{"category": "Professional", "type": "Services", "subcategory": "Business Services"}], "phone": "+44 1525 861884", "href": "http://api.simplegeo.com/1.0/features/SG_7BCIRPNAESb1vhTDSZcucu_52.030571_-0.472539@1300740015.json", "address": "Sunnyside Nurseries, Clophill Rd, Maulden", "owner": "simplegeo", "postcode": "MK45 2AE"}}
{"geometry": {"type": "Point", "coordinates": [-0.4353330135, 52.0262451172]}, "type": "Feature", "id": "SG_11f6JRnFrigqWwD3YU3ro7_52.026245_-0.435333@1300740015", "properties": {"province": "Bedfordshire", "city": "Bedford", "name": "P A L Packaging", "tags": ["product"], "country": "GB", "classifiers": [{"category": "Manufacturing", "type": "Manufacturing & Wholesale Goods", "subcategory": "Rubber & Plastics"}], "phone": "+44 1525 861645", "href": "http://api.simplegeo.com/1.0/features/SG_11f6JRnFrigqWwD3YU3ro7_52.026245_-0.435333@1300740015.json", "address": "117 Clophill Road, Maulden", "owner": "simplegeo", "postcode": "MK45 2AE"}}
{"geometry": {"type": "Point", "coordinates": [-0.4353330135, 52.0262451172]}, "type": "Feature", "id": "SG_4FGpfTvPwslLbmJUu06KpK_52.026245_-0.435333@1300740015", "properties": {"province": "Bedfordshire", "city": "Bedford", "name": "Independent Packaging", "tags": ["product"], "country": "GB", "classifiers": [{"category": "Manufacturing", "type": "Manufacturing & Wholesale Goods", "subcategory": "Rubber & Plastics"}], "phone": "+44 1525 862882", "href": "http://api.simplegeo.com/1.0/features/SG_4FGpfTvPwslLbmJUu06KpK_52.026245_-0.435333@1300740015.json", "address": "117, Clophill Road, Maulden", "owner": "simplegeo", "postcode": "MK45 2AE"}}
{"geometry": {"type": "Point", "coordinates": [-0.4353330135, 52.0262451172]}, "type": "Feature", "id": "SG_33YViwQZ0HBjL0ZtGwmwsN_52.026245_-0.435333@1300740015", "properties": {"province": "Bedfordshire", "city": "Bedford", "name": "I.Q Insurance", "country": "GB", "classifiers": [{"category": "Insurance", "type": "Services", "subcategory": "Insurance Agent"}], "phone": "+44 1525 861123", "href": "http://api.simplegeo.com/1.0/features/SG_33YViwQZ0HBjL0ZtGwmwsN_52.026245_-0.435333@1300740015.json", "address": "117 Clophill Rd, Maulden", "owner": "simplegeo", "postcode": "MK45 2AE"}}
{"geometry": {"type": "Point", "coordinates": [-0.4725390077, 52.0305709839]}, "type": "Feature", "id": "SG_1eF9cRIhGs0wUoYOy8xGAf_52.030571_-0.472539@1300740015", "properties": {"province": "Bedfordshire", "city": "Bedford", "name": "Blastek Ltd.", "tags": ["blast"], "country": "GB", "classifiers": [{"category": "Building & Trades", "type": "Services", "subcategory": "Cleaning & Sanitation"}], "phone": "+44 1525 860366", "href": "http://api.simplegeo.com/1.0/features/SG_1eF9cRIhGs0wUoYOy8xGAf_52.030571_-0.472539@1300740015.json", "address": "Unit 7 Woodside Farm Industrial Estate, Clophill Road, Maulden", "owner": "simplegeo", "postcode": "MK45 2AE"}}
{"geometry": {"type": "Point", "coordinates": [-0.4353330135, 52.0262451172]}, "type": "Feature", "id": "SG_6fuWPXHjcywqTuO5HUlCGw_52.026245_-0.435333@1300740015", "properties": {"province": "Bedfordshire", "city": "Bedford", "name": "Workbench", "tags": ["decorator", "painter"], "country": "GB", "classifiers": [{"category": "Building & Trades", "type": "Services", "subcategory": "Construction"}], "phone": "+44 1525 862323", "href": "http://api.simplegeo.com/1.0/features/SG_6fuWPXHjcywqTuO5HUlCGw_52.026245_-0.435333@1300740015.json", "address": "Unit 5 117 Clophill Road, Maulden", "owner": "simplegeo", "postcode": "MK45 2AE"}}
{"geometry": {"type": "Point", "coordinates": [-0.4341259897, 52.0261497498]}, "type": "Feature", "id": "SG_0EBVLR0In1NsdgIlFjBvsj_52.026150_-0.434126@1300740015", "properties": {"province": "Bedfordshire", "city": "Bedford", "name": "Shorey's Travel", "tags": ["hire", "coach"], "country": "GB", "classifiers": [{"category": "Bus Charters", "type": "Transportation", "subcategory": ""}], "href": "http://api.simplegeo.com/1.0/features/SG_0EBVLR0In1NsdgIlFjBvsj_52.026150_-0.434126@1300740015.json", "address": "119 Clophill Road, Maulden", "owner": "simplegeo", "postcode": "MK45 2AE"}}
{"geometry": {"type": "Point", "coordinates": [-0.4353330135, 52.0262451172]}, "type": "Feature", "id": "SG_0Fall22WPwxIHQz02Ycgvj_52.026245_-0.435333@1300740015", "properties": {"province": "Bedfordshire", "city": "Bedford", "name": "Adroit Recruitment", "tags": ["consultant"], "country": "GB", "classifiers": [{"category": "Professional", "type": "Services", "subcategory": "Employment Agencies"}], "phone": "+44 1525 862282", "href": "http://api.simplegeo.com/1.0/features/SG_0Fall22WPwxIHQz02Ycgvj_52.026245_-0.435333@1300740015.json", "address": "117 Clophill Rd", "owner": "simplegeo", "postcode": "MK45 2AE"}}
{"geometry": {"type": "Point", "coordinates": [-0.4725390077, 52.0305709839]}, "type": "Feature", "id": "SG_1T8dToINsWmzBNmMtnvF7r_52.030571_-0.472539@1300740015", "properties": {"province": "Bedfordshire", "city": "Bedford", "name": "Rush Movements Ltd", "tags": ["forwarders"], "country": "GB", "classifiers": [{"category": "Freight", "type": "Transportation", "subcategory": ""}], "phone": "+44 1525 862780", "href": "http://api.simplegeo.com/1.0/features/SG_1T8dToINsWmzBNmMtnvF7r_52.030571_-0.472539@1300740015.json", "address": "Woodside Farm, Clophill Rd, Maulden", "owner": "simplegeo", "postcode": "MK45 2AE"}}
{"geometry": {"type": "Point", "coordinates": [-0.4353330135, 52.0262451172]}, "type": "Feature", "id": "SG_6OOdHqLimiYubu968ecMny_52.026245_-0.435333@1300740015", "properties": {"province": "Bedfordshire", "city": "Bedford", "name": "Bolton,Geoff,", "tags": ["concrete", "product"], "country": "GB", "classifiers": [{"category": "Manufacturing", "type": "Manufacturing & Wholesale Goods", "subcategory": "Building Materials"}], "href": "http://api.simplegeo.com/1.0/features/SG_6OOdHqLimiYubu968ecMny_52.026245_-0.435333@1300740015.json", "address": "117 Clophill Rd, Maulden", "owner": "simplegeo", "postcode": "MK45 2AE"}}
{"geometry": {"type": "Point", "coordinates": [-0.4725390077, 52.0305709839]}, "type": "Feature", "id": "SG_7Iz6DejEfGb4SF0cVuPbZq_52.030571_-0.472539@1300740015", "properties": {"province": "Bedfordshire", "city": "Bedford", "name": "Farr & Daughters Ltd.", "tags": ["nursery", "centre"], "country": "GB", "classifiers": [{"category": "Home & Garden", "type": "Retail Goods", "subcategory": "Garden Supply"}], "phone": "+44 1525 861266", "href": "http://api.simplegeo.com/1.0/features/SG_7Iz6DejEfGb4SF0cVuPbZq_52.030571_-0.472539@1300740015.json", "address": "Clophill Road, Maulden", "owner": "simplegeo", "postcode": "MK45 2AD"}}
{"geometry": {"type": "Point", "coordinates": [-0.4725390077, 52.0305709839]}, "type": "Feature", "id": "SG_25uquL5lwwrQdQffjIdaXG_52.030571_-0.472539@1300740015", "properties": {"province": "Bedfordshire", "city": "Bedford", "name": "K Soloman", "tags": ["pubs", "inn"], "country": "GB", "classifiers": [{"category": "Bars & Pubs", "type": "Food & Drink", "subcategory": ""}], "phone": "+44 1525 860237", "href": "http://api.simplegeo.com/1.0/features/SG_25uquL5lwwrQdQffjIdaXG_52.030571_-0.472539@1300740015.json", "address": "Clophill Road, Maulden", "owner": "simplegeo", "postcode": "MK45 2AD"}}
{"geometry": {"type": "Point", "coordinates": [-0.4416890144, 52.0273284912]}, "type": "Feature", "id": "SG_4AvteqYzMy6IMa70ORvVBb_52.027328_-0.441689@1300740015", "properties": {"province": "Bedfordshire", "city": "Bedford", "name": "Whinnett,C L,", "tags": ["landscape", "contractor"], "country": "GB", "classifiers": [{"category": "Building & Trades", "type": "Services", "subcategory": "Landscaping Services"}], "href": "http://api.simplegeo.com/1.0/features/SG_4AvteqYzMy6IMa70ORvVBb_52.027328_-0.441689@1300740015.json", "address": "Badger Hill Nurseries, Clophill Rd, Maulden", "owner": "simplegeo", "postcode": "MK45 2AD"}}
{"geometry": {"type": "Point", "coordinates": [-0.4949940145, 52.0279464722]}, "type": "Feature", "id": "SG_31ritxA0TXsgfAe9586r0j_52.027946_-0.494994@1300740015", "properties": {"province": "Bedfordshire", "city": "Bedford", "name": "Flitwick Mower Service", "tags": ["lawnmowers", "machinery"], "country": "GB", "classifiers": [{"category": "Home & Garden", "type": "Retail Goods", "subcategory": "Hardware"}], "phone": "+44 1525 862000", "href": "http://api.simplegeo.com/1.0/features/SG_31ritxA0TXsgfAe9586r0j_52.027946_-0.494994@1300740015.json", "address": "Farrs Garden Centre, Clophill Road", "owner": "simplegeo", "postcode": "MK45 2AD"}}
{"geometry": {"type": "Point", "coordinates": [-0.4416890144, 52.0273284912]}, "type": "Feature", "id": "SG_3zOomXwwSdKTMhFXYYmTLF_52.027328_-0.441689@1300740015", "properties": {"province": "Bedfordshire", "city": "Bedford", "name": "Badger Hill Farm Training", "tags": ["product", "centre"], "country": "GB", "classifiers": [{"category": "Education", "type": "Public Place", "subcategory": "Special Training"}], "phone": "+44 1525 861613", "href": "http://api.simplegeo.com/1.0/features/SG_3zOomXwwSdKTMhFXYYmTLF_52.027328_-0.441689@1300740015.json", "address": "Badger Hill Farm, Clophill Road, Maulden", "owner": "simplegeo", "postcode": "MK45 2AD"}}
{"geometry": {"type": "Point", "coordinates": [-0.4306190014, 52.0261535645]}, "type": "Feature", "id": "SG_3VANNwg1bkF076qSIlMVYo_52.026154_-0.430619@1300740015", "properties": {"province": "Bedfordshire", "city": "Bedford", "name": "P D Izzard", "tags": ["haulage", "road"], "country": "GB", "classifiers": [{"category": "Freight", "type": "Transportation", "subcategory": ""}], "phone": "+44 1525 860482", "href": "http://api.simplegeo.com/1.0/features/SG_3VANNwg1bkF076qSIlMVYo_52.026154_-0.430619@1300740015.json", "address": "166 Clophill Road, Maulden", "owner": "simplegeo", "postcode": "MK45 2AF"}}
{"geometry": {"type": "Point", "coordinates": [-0.4261789918, 52.0270805359]}, "type": "Feature", "id": "SG_08AYeDSGVoYj2k1xMmuyef_52.027081_-0.426179@1300740015", "properties": {"province": "Bedfordshire", "city": "Bedford", "name": "A & F Motors", "tags": ["modification", "garage"], "country": "GB", "classifiers": [{"category": "Retail", "type": "Services", "subcategory": "Auto Repair"}], "phone": "+44 1525 860292", "href": "http://api.simplegeo.com/1.0/features/SG_08AYeDSGVoYj2k1xMmuyef_52.027081_-0.426179@1300740015.json", "address": "208 Clophill Road, Maulden", "owner": "simplegeo", "postcode": "MK45 2AF"}}
{"geometry": {"type": "Point", "coordinates": [-0.4269460142, 52.0271911621]}, "type": "Feature", "id": "SG_3dF8lA3kvRFuDoz2rdOJCT_52.027191_-0.426946@1300740015", "properties": {"province": "Bedfordshire", "city": "Bedford", "name": "Agriseal Ltd", "tags": ["merchant", "agricultural"], "country": "GB", "classifiers": [{"category": "Building & Trades", "type": "Services", "subcategory": "Cleaning & Sanitation"}, {"category": "Shopping", "type": "Retail Goods", "subcategory": ""}], "href": "http://api.simplegeo.com/1.0/features/SG_3dF8lA3kvRFuDoz2rdOJCT_52.027191_-0.426946@1300740015.json", "address": "145 Clophill Road, Maulden", "owner": "simplegeo", "postcode": "MK45 2AF"}}
{"geometry": {"type": "Point", "coordinates": [-0.4282949865, 52.0269241333]}, "type": "Feature", "id": "SG_3kvlCqoxGpMwEfn8vXkmAZ_52.026924_-0.428295@1300740015", "properties": {"province": "Bedfordshire", "city": "Bedford", "name": "Leemoll Services", "tags": ["top", "heating", "central", "publishing", "desk"], "country": "GB", "classifiers": [{"category": "Building & Trades", "type": "Services", "subcategory": "Plumbing"}, {"category": "Professional", "type": "Services", "subcategory": "Printing & Photocopies"}], "phone": "+44 1525 860646", "href": "http://api.simplegeo.com/1.0/features/SG_3kvlCqoxGpMwEfn8vXkmAZ_52.026924_-0.428295@1300740015.json", "address": "137 Clophill Road, Maulden", "owner": "simplegeo", "postcode": "MK45 2AF"}}
{"geometry": {"type": "Point", "coordinates": [-0.4269460142, 52.0271911621]}, "type": "Feature", "id": "SG_1npc1AC0haRYfO4t8zNiqZ_52.027191_-0.426946@1300740015", "properties": {"province": "Bedfordshire", "city": "Bedford", "name": "B W Platt", "tags": ["heating"], "country": "GB", "classifiers": [{"category": "Building & Trades", "type": "Services", "subcategory": "Plumbing"}], "phone": "+44 1525 860470", "href": "http://api.simplegeo.com/1.0/features/SG_1npc1AC0haRYfO4t8zNiqZ_52.027191_-0.426946@1300740015.json", "address": "145b Clophill Road, Maulden", "owner": "simplegeo", "postcode": "MK45 2AF"}}
{"geometry": {"type": "Point", "coordinates": [-0.4949940145, 52.0279464722]}, "type": "Feature", "id": "SG_0snPwbsSvX4DFLhoQb97Hm_52.027946_-0.494994@1300740015", "properties": {"province": "Bedfordshire", "city": "Bedford", "name": "A J Pattinson & Co.", "tags": ["others"], "country": "GB", "classifiers": [{"category": "Farming", "type": "Manufacturing & Wholesale Goods", "subcategory": "Livestock Farm"}], "phone": "+44 1525 402164", "href": "http://api.simplegeo.com/1.0/features/SG_0snPwbsSvX4DFLhoQb97Hm_52.027946_-0.494994@1300740015.json", "address": "Old Farm, Clophill Road, Maulden", "owner": "simplegeo", "postcode": "MK45 2AA"}}
{"geometry": {"type": "Point", "coordinates": [-0.454587996, 52.0276527405]}, "type": "Feature", "id": "SG_4TpgfPs6vIF3OpT26jbM8U_52.027653_-0.454588@1300740015", "properties": {"province": "Bedfordshire", "city": "Bedford", "name": "C C Tools", "tags": ["power"], "country": "GB", "classifiers": [{"category": "Manufacturing", "type": "Manufacturing & Wholesale Goods", "subcategory": "Tools & Machinery"}], "href": "http://api.simplegeo.com/1.0/features/SG_4TpgfPs6vIF3OpT26jbM8U_52.027653_-0.454588@1300740015.json", "address": "Unit 3, 29 Clophill Road", "owner": "simplegeo", "postcode": "MK45 2AA"}}
{"geometry": {"type": "Point", "coordinates": [-0.454587996, 52.0276527405]}, "type": "Feature", "id": "SG_0rbOfTkzPElXf2ofes5aYo_52.027653_-0.454588@1300740015", "properties": {"province": "Bedfordshire", "city": "Bedford", "name": "M J Hillson Ltd.", "tags": ["builder", "joiner", "carpenter"], "country": "GB", "classifiers": [{"category": "Building & Trades", "type": "Services", "subcategory": "Construction"}], "phone": "+44 1525 409400", "href": "http://api.simplegeo.com/1.0/features/SG_0rbOfTkzPElXf2ofes5aYo_52.027653_-0.454588@1300740015.json", "address": "29 Clophill Road, Maulden", "owner": "simplegeo", "postcode": "MK45 2AA"}}
{"geometry": {"type": "Point", "coordinates": [-0.454587996, 52.0276527405]}, "type": "Feature", "id": "SG_4FgWkLSbHc0UXn481I7cH2_52.027653_-0.454588@1300740015", "properties": {"province": "Bedfordshire", "city": "Bedford", "name": "Concept Solutions", "tags": ["draughtsman", "drawing"], "country": "GB", "classifiers": [{"category": "Social Services", "type": "Services", "subcategory": "Job Training"}], "phone": "+44 1525 840659", "href": "http://api.simplegeo.com/1.0/features/SG_4FgWkLSbHc0UXn481I7cH2_52.027653_-0.454588@1300740015.json", "address": "Unit 5 29 Clophill Rd", "owner": "simplegeo", "postcode": "MK45 2AA"}}
{"geometry": {"type": "Point", "coordinates": [-0.4511370063, 52.0269165039]}, "type": "Feature", "id": "SG_3tAlUIKPUAGsOEIJnEd3bC_52.026917_-0.451137@1300740015", "properties": {"province": "Bedfordshire", "city": "Bedford", "name": "Matramar Builders", "tags": ["builder"], "country": "GB", "classifiers": [{"category": "Building & Trades", "type": "Services", "subcategory": "Construction"}], "phone": "+44 1525 403828", "href": "http://api.simplegeo.com/1.0/features/SG_3tAlUIKPUAGsOEIJnEd3bC_52.026917_-0.451137@1300740015.json", "address": "56 Clophill Road, Maulden", "owner": "simplegeo", "postcode": "MK45 2AA"}}
{"geometry": {"type": "Point", "coordinates": [0.3705649972, 51.4290542603]}, "type": "Feature", "id": "SG_4aXhrf5lOfGl7hcLhyL6dR_51.429054_0.370565@1300740015", "properties": {"province": "Kent", "city": "Gravesend", "name": "A1 Roofing Services", "tags": ["builder"], "country": "GB", "classifiers": [{"category": "Building & Trades", "type": "Services", "subcategory": "Construction"}], "href": "http://api.simplegeo.com/1.0/features/SG_4aXhrf5lOfGl7hcLhyL6dR_51.429054_0.370565@1300740015.json", "address": "10 Central Avenue", "owner": "simplegeo", "postcode": "DA12 5AD"}}
{"geometry": {"type": "Point", "coordinates": [0.3711819947, 51.4270782471]}, "type": "Feature", "id": "SG_4QM6LY1bN7Dm9ikBROFfpG_51.427078_0.371182@1300740015", "properties": {"province": "Kent", "city": "Gravesend", "name": "Peter L Diggory", "tags": ["plumber", "heating"], "country": "GB", "classifiers": [{"category": "Building & Trades", "type": "Services", "subcategory": "Plumbing"}], "phone": "+44 1474 326333", "href": "http://api.simplegeo.com/1.0/features/SG_4QM6LY1bN7Dm9ikBROFfpG_51.427078_0.371182@1300740015.json", "address": "76 Central Avenue", "owner": "simplegeo", "postcode": "DA12 5AD"}}
{"geometry": {"type": "Point", "coordinates": [-0.4949940145, 52.0279464722]}, "type": "Feature", "id": "SG_0xU08mgc3gobFQv0klZZvV_52.027946_-0.494994@1300740015", "properties": {"province": "Bedfordshire", "city": "Bedford", "name": "H J & A J Cole", "tags": ["haulage", "road"], "country": "GB", "classifiers": [{"category": "Freight", "type": "Transportation", "subcategory": ""}], "href": "http://api.simplegeo.com/1.0/features/SG_0xU08mgc3gobFQv0klZZvV_52.027946_-0.494994@1300740015.json", "address": "8 Hall End Close, Maulden", "owner": "simplegeo", "postcode": "MK45 2AH"}}
{"geometry": {"type": "Point", "coordinates": [-0.4578070045, 52.0299911499]}, "type": "Feature", "id": "SG_3Xl2PXj4n69jeUmfJerFw0_52.029991_-0.457807@1300740015", "properties": {"province": "Bedfordshire", "city": "Bedford", "name": "Maulden Lower School", "tags": ["local", "authority"], "country": "GB", "classifiers": [{"category": "Education", "type": "Public Place", "subcategory": "School"}], "phone": "+44 1525 402286", "href": "http://api.simplegeo.com/1.0/features/SG_3Xl2PXj4n69jeUmfJerFw0_52.029991_-0.457807@1300740015.json", "address": "Church Road, Maulden", "owner": "simplegeo", "postcode": "MK45 2AU"}}
{"geometry": {"type": "Point", "coordinates": [-0.4577580094, 52.0306472778]}, "type": "Feature", "id": "SG_4wIT7orDorVxuCOhseFMjp_52.030647_-0.457758@1300740015", "properties": {"province": "Bedfordshire", "city": "Bedford", "name": "The Pension Fund Partnership", "tags": ["market"], "country": "GB", "classifiers": [{"category": "Professional", "type": "Services", "subcategory": "Research"}], "phone": "+44 1525 841668", "href": "http://api.simplegeo.com/1.0/features/SG_4wIT7orDorVxuCOhseFMjp_52.030647_-0.457758@1300740015.json", "address": "12 Church Rd, Maulden", "owner": "simplegeo", "postcode": "MK45 2AU"}}
{"geometry": {"type": "Point", "coordinates": [-0.4725390077, 52.0305709839]}, "type": "Feature", "id": "SG_2xxZ9LUWYM8HqT7kvOW9cE_52.030571_-0.472539@1300740015", "properties": {"province": "Bedfordshire", "city": "Bedford", "name": "Bedfordia Livestock Ltd.", "tags": ["others"], "country": "GB", "classifiers": [{"category": "Farming", "type": "Manufacturing & Wholesale Goods", "subcategory": "Livestock Farm"}], "phone": "+44 1525 402103", "href": "http://api.simplegeo.com/1.0/features/SG_2xxZ9LUWYM8HqT7kvOW9cE_52.030571_-0.472539@1300740015.json", "address": "Longview Farm, Silsoe Road, Maulden", "owner": "simplegeo", "postcode": "MK45 2AX"}}
{"geometry": {"type": "Point", "coordinates": [-0.4585799873, 52.0274581909]}, "type": "Feature", "id": "SG_4O0MUm9qdFGsXTwSyihU4r_52.027458_-0.458580@1300740015", "properties": {"province": "Bedfordshire", "city": "Bedford", "name": "N R Owen", "tags": ["modification", "garage"], "country": "GB", "classifiers": [{"category": "Retail", "type": "Services", "subcategory": "Auto Repair"}], "phone": "+44 1525 406034", "href": "http://api.simplegeo.com/1.0/features/SG_4O0MUm9qdFGsXTwSyihU4r_52.027458_-0.458580@1300740015.json", "address": "Springfield Farm, Silsoe Road Malden", "owner": "simplegeo", "postcode": "MK45 2AX"}}
{"geometry": {"type": "Point", "coordinates": [-0.4559159875, 52.0237236023]}, "type": "Feature", "id": "SG_25iZrsxr9xWjE9iM9SgzCp_52.023724_-0.455916@1300740015", "properties": {"province": "Bedfordshire", "city": "Bedford", "name": "Chris Cole Plant Hire", "tags": ["plant", "machinery"], "country": "GB", "classifiers": [{"category": "Building & Trades", "type": "Services", "subcategory": "Equipment Rental"}], "href": "http://api.simplegeo.com/1.0/features/SG_25iZrsxr9xWjE9iM9SgzCp_52.023724_-0.455916@1300740015.json", "address": "27 Silsoe Road, Maulden", "owner": "simplegeo", "postcode": "MK45 2AX"}}
{"geometry": {"type": "Point", "coordinates": [-0.4725390077, 52.0305709839]}, "type": "Feature", "id": "SG_2EZRHBMve4WIZmbp0Z0aCX_52.030571_-0.472539@1300740015", "properties": {"province": "Bedfordshire", "city": "Bedford", "name": "L W Vass (Agricultural) Ltd.", "tags": ["merchant"], "country": "GB", "classifiers": [{"category": "Shopping", "type": "Retail Goods", "subcategory": ""}], "phone": "+44 1525 403041", "href": "http://api.simplegeo.com/1.0/features/SG_2EZRHBMve4WIZmbp0Z0aCX_52.030571_-0.472539@1300740015.json", "address": "Springfield Farm, Silsoe Road, Maulden", "owner": "simplegeo", "postcode": "MK45 2AX"}}
{"geometry": {"type": "Point", "coordinates": [-1.6311089993, 53.6916046143]}, "type": "Feature", "id": "SG_0UjyZtAwU26ck9MaIpCSaz_53.691605_-1.631109@1300740015", "properties": {"province": "West Yorkshire", "city": "Dewsbury", "name": "Pet Heaven", "tags": ["cemetery", "crematorium"], "country": "GB", "classifiers": [{"category": "Shopping", "type": "Retail Goods", "subcategory": "Pets & Pet Supplies"}], "phone": "+44 1924 462555", "href": "http://api.simplegeo.com/1.0/features/SG_0UjyZtAwU26ck9MaIpCSaz_53.691605_-1.631109@1300740015.json", "address": "36 Beech Walk, Eightlands", "owner": "simplegeo", "postcode": "WF13 2PJ"}}
{"geometry": {"type": "Point", "coordinates": [-1.6311089993, 53.6916046143]}, "type": "Feature", "id": "SG_4TxAz8pA5YC5LxSsVpinzL_53.691605_-1.631109@1300740015", "properties": {"province": "West Yorkshire", "city": "Dewsbury", "name": "Abbotts of Dewsbury Ltd", "tags": ["equipment", "cleaning"], "country": "GB", "classifiers": [{"category": "Home & Garden", "type": "Retail Goods", "subcategory": "Building Materials"}], "phone": "+44 1924 439994", "href": "http://api.simplegeo.com/1.0/features/SG_4TxAz8pA5YC5LxSsVpinzL_53.691605_-1.631109@1300740015.json", "address": "8 Beech Walk", "owner": "simplegeo", "postcode": "WF13 2PJ"}}
{"geometry": {"type": "Point", "coordinates": [-1.6334190369, 53.6929664612]}, "type": "Feature", "id": "SG_4epVwJrJgfI6CjTDH5nw7R_53.692966_-1.633419@1300740015", "properties": {"province": "West Yorkshire", "city": "Dewsbury", "name": "Dewsbury County Court", "country": "GB", "classifiers": [{"category": "Government", "type": "Public Place", "subcategory": "Court House"}], "phone": "+44 1924 465860", "href": "http://api.simplegeo.com/1.0/features/SG_4epVwJrJgfI6CjTDH5nw7R_53.692966_-1.633419@1300740015.json", "address": "Eightlands Road", "owner": "simplegeo", "postcode": "WF13 2PE"}}
{"geometry": {"type": "Point", "coordinates": [0.0919860005, 53.0304412842]}, "type": "Feature", "id": "SG_0ewNPq4dbZP23HTA1t29eS_53.030441_0.091986@1300740015", "properties": {"province": "Lincolnshire", "city": "Boston", "name": "George Young", "tags": ["mixed", "crop"], "country": "GB", "classifiers": [{"category": "Farming", "type": "Manufacturing & Wholesale Goods", "subcategory": "Farm"}], "phone": "+44 1205 870503", "href": "http://api.simplegeo.com/1.0/features/SG_0ewNPq4dbZP23HTA1t29eS_53.030441_0.091986@1300740015.json", "address": "Southfields Lane, Old Leake", "owner": "simplegeo", "postcode": "PE22 9LW"}}
{"geometry": {"type": "Point", "coordinates": [-1.6334190369, 53.6929664612]}, "type": "Feature", "id": "SG_6VTzCFgQE49klQFSdY4hT6_53.692966_-1.633419@1300740015", "properties": {"province": "West Yorkshire", "city": "Dewsbury", "name": "J Hicks", "tags": ["practitioners"], "country": "GB", "classifiers": [{"category": "Health Services", "type": "Services", "subcategory": "Doctor"}], "phone": "+44 1924 454473", "href": "http://api.simplegeo.com/1.0/features/SG_6VTzCFgQE49klQFSdY4hT6_53.692966_-1.633419@1300740015.json", "address": "Eightlands Road", "owner": "simplegeo", "postcode": "WF13 2PG"}}
{"geometry": {"type": "Point", "coordinates": [0.0973320007, 53.0319290161]}, "type": "Feature", "id": "SG_2JNDzr7AK6EjCPdEDSpE9n_53.031929_0.097332@1300740015", "properties": {"province": "Lincolnshire", "city": "Boston", "name": "White Cat Caravan & Camping Park", "tags": ["operator", "site", "camping"], "country": "GB", "classifiers": [{"category": "Recreation", "type": "Entertainment", "subcategory": "Campground"}], "phone": "+44 1205 870121", "href": "http://api.simplegeo.com/1.0/features/SG_2JNDzr7AK6EjCPdEDSpE9n_53.031929_0.097332@1300740015.json", "address": "The Cottage, Shaws Lane, Old Leake", "owner": "simplegeo", "postcode": "PE22 9LQ"}}
{"geometry": {"type": "Point", "coordinates": [-1.6332449913, 53.6936035156]}, "type": "Feature", "id": "SG_30WRb1cFYVkfETbgcb4etD_53.693604_-1.633245@1300740015", "properties": {"province": "West Yorkshire", "city": "Dewsbury", "name": "Eightlands Pharmacy", "tags": ["pharmacist", "dispensing", "chemist"], "country": "GB", "classifiers": [{"category": "Shopping", "type": "Retail Goods", "subcategory": "Pharmacy"}], "phone": "+44 1924 458132", "href": "http://api.simplegeo.com/1.0/features/SG_30WRb1cFYVkfETbgcb4etD_53.693604_-1.633245@1300740015.json", "address": "20 Swindon Road", "owner": "simplegeo", "postcode": "WF13 2PA"}}
{"geometry": {"type": "Point", "coordinates": [0.0702600032, 53.0260810852]}, "type": "Feature", "id": "SG_0myqjZO5MD46FpVOaXFz80_53.026081_0.070260@1300740015", "properties": {"province": "Lincolnshire", "city": "Boston", "name": "The Meadows", "tags": ["housing", "sheltered"], "country": "GB", "classifiers": [{"category": "Social Services", "type": "Services", "subcategory": "Adult Care"}], "phone": "+44 1205 870655", "href": "http://api.simplegeo.com/1.0/features/SG_0myqjZO5MD46FpVOaXFz80_53.026081_0.070260@1300740015.json", "address": "Old Leake", "owner": "simplegeo", "postcode": "PE22 9LS"}}
{"geometry": {"type": "Point", "coordinates": [0.0973320007, 53.0319290161]}, "type": "Feature", "id": "SG_50NQn3py67nY0J23kRY2F3_53.031929_0.097332@1300740015", "properties": {"province": "Lincolnshire", "city": "Boston", "name": "W Young", "tags": ["others"], "country": "GB", "classifiers": [{"category": "Farming", "type": "Manufacturing & Wholesale Goods", "subcategory": "Livestock Farm"}], "href": "http://api.simplegeo.com/1.0/features/SG_50NQn3py67nY0J23kRY2F3_53.031929_0.097332@1300740015.json", "address": "Elmdene, Crackholt Lane, Old Leake", "owner": "simplegeo", "postcode": "PE22 9LR"}}
{"geometry": {"type": "Point", "coordinates": [0.0973320007, 53.0319290161]}, "type": "Feature", "id": "SG_5FOkUtPY0YBJQOsAJIStdm_53.031929_0.097332@1300740015", "properties": {"province": "Lincolnshire", "city": "Boston", "name": "R F Codd & Sons", "tags": ["mixed", "crop"], "country": "GB", "classifiers": [{"category": "Farming", "type": "Manufacturing & Wholesale Goods", "subcategory": "Farm"}], "href": "http://api.simplegeo.com/1.0/features/SG_5FOkUtPY0YBJQOsAJIStdm_53.031929_0.097332@1300740015.json", "address": "Crackholt Farm, Crackholt Lane, Old Leake", "owner": "simplegeo", "postcode": "PE22 9LR"}}
{"geometry": {"type": "Point", "coordinates": [-3.2779240608, 51.4113464355]}, "type": "Feature", "id": "SG_73dCEV1WgXJ2ImczBSEyp8_51.411346_-3.277924@1300740015", "properties": {"province": "The Vale of Glamorgan", "city": "Barry", "name": "The Breathing Clinic", "tags": ["private"], "country": "GB", "classifiers": [{"category": "Health Services", "type": "Services", "subcategory": "Clinic"}], "phone": "+44 1446 700706", "href": "http://api.simplegeo.com/1.0/features/SG_73dCEV1WgXJ2ImczBSEyp8_51.411346_-3.277924@1300740015.json", "address": "St Barrac Unit, Colcot Rd", "owner": "simplegeo", "postcode": "CF62 8YH"}}
{"geometry": {"type": "Point", "coordinates": [0.0997600034, 53.0294914246]}, "type": "Feature", "id": "SG_29C7cj5VFkWN0uAkqKDMGy_53.029491_0.099760@1300740015", "properties": {"province": "Lincolnshire", "city": "Boston", "name": "Bloom, I R B", "tags": ["practitioners"], "country": "GB", "classifiers": [{"category": "Health Services", "type": "Services", "subcategory": "Doctor"}], "phone": "+44 1205 870666", "href": "http://api.simplegeo.com/1.0/features/SG_29C7cj5VFkWN0uAkqKDMGy_53.029491_0.099760@1300740015.json", "address": "Medical Centre, Church End", "owner": "simplegeo", "postcode": "PE22 9LE"}}
{"geometry": {"type": "Point", "coordinates": [0.0997600034, 53.0294914246]}, "type": "Feature", "id": "SG_5HgVXYrJLTdwvmJFsXgC0j_53.029491_0.099760@1300740015", "properties": {"province": "Lincolnshire", "city": "Boston", "name": "Medical Centre", "tags": ["practitioners"], "country": "GB", "classifiers": [{"category": "Health Services", "type": "Services", "subcategory": "Doctor"}], "phone": "+44 1205 870666", "href": "http://api.simplegeo.com/1.0/features/SG_5HgVXYrJLTdwvmJFsXgC0j_53.029491_0.099760@1300740015.json", "address": "Old Leake", "owner": "simplegeo", "postcode": "PE22 9LE"}}
{"geometry": {"type": "Point", "coordinates": [0.1229600012, 53.0363082886]}, "type": "Feature", "id": "SG_69MV8E6VJYkqHVNvNY5fJs_53.036308_0.122960@1300740015", "properties": {"province": "Lincolnshire", "city": "Boston", "name": "R Royle", "tags": ["plant", "machinery"], "country": "GB", "classifiers": [{"category": "Building & Trades", "type": "Services", "subcategory": "Equipment Rental"}], "phone": "+44 1205 870532", "href": "http://api.simplegeo.com/1.0/features/SG_69MV8E6VJYkqHVNvNY5fJs_53.036308_0.122960@1300740015.json", "address": "Church End, Old Leake", "owner": "simplegeo", "postcode": "PE22 9LE"}}
{"geometry": {"type": "Point", "coordinates": [0.1229600012, 53.0363082886]}, "type": "Feature", "id": "SG_6PioawEPamMOJnWvin1GT8_53.036308_0.122960@1300740015", "properties": {"province": "Lincolnshire", "city": "Boston", "name": "The Giles School", "tags": ["college", "local"], "country": "GB", "classifiers": [{"category": "Education", "type": "Public Place", "subcategory": "School"}, {"category": "Government", "type": "Public Place", "subcategory": "Office"}], "phone": "+44 1205 870693", "href": "http://api.simplegeo.com/1.0/features/SG_6PioawEPamMOJnWvin1GT8_53.036308_0.122960@1300740015.json", "address": "Church End, Old Leake", "owner": "simplegeo", "postcode": "PE22 9LD"}}
{"geometry": {"type": "Point", "coordinates": [0.0946369991, 53.0341682434]}, "type": "Feature", "id": "SG_4zmI40eLpCRP1VIgKb712U_53.034168_0.094637@1300740015", "properties": {"province": "Lincolnshire", "city": "Boston", "name": "Leicestershire Legal Services Ltd", "tags": ["solicitor"], "country": "GB", "classifiers": [{"category": "Professional", "type": "Services", "subcategory": "Lawyer & Legal Services"}], "phone": "+44 1205 870909", "href": "http://api.simplegeo.com/1.0/features/SG_4zmI40eLpCRP1VIgKb712U_53.034168_0.094637@1300740015.json", "address": "19 Bert Allen Drive, Old Leake", "owner": "simplegeo", "postcode": "PE22 9LG"}}
{"geometry": {"type": "Point", "coordinates": [-3.2779939175, 51.4017829895]}, "type": "Feature", "id": "SG_2vTsSDSGjYl6GMVvtvRVeI_51.401783_-3.277994@1300740015", "properties": {"province": "The Vale of Glamorgan", "city": "Barry", "name": "Thomas Directory", "tags": ["self", "catering"], "country": "GB", "classifiers": [{"category": "Travel", "type": "Entertainment", "subcategory": "Hotels & Motels"}], "href": "http://api.simplegeo.com/1.0/features/SG_2vTsSDSGjYl6GMVvtvRVeI_51.401783_-3.277994@1300740015.json", "address": "P O Box 22", "owner": "simplegeo", "postcode": "CF62 8YB"}}
{"geometry": {"type": "Point", "coordinates": [-1.6370040178, 53.6914749146]}, "type": "Feature", "id": "SG_55XTj0UE9LaJXKhuGflMGC_53.691475_-1.637004@1300740015", "properties": {"province": "West Yorkshire", "city": "Dewsbury", "name": "Designs Hair Salon", "tags": ["unisex", "hairdresser"], "country": "GB", "classifiers": [{"category": "Personal", "type": "Services", "subcategory": "Beauty Salon"}], "href": "http://api.simplegeo.com/1.0/features/SG_55XTj0UE9LaJXKhuGflMGC_53.691475_-1.637004@1300740015.json", "address": "34 Vulcan Gardens", "owner": "simplegeo", "postcode": "WF13 2PP"}}
{"geometry": {"type": "Point", "coordinates": [0.0922000036, 53.034740448]}, "type": "Feature", "id": "SG_2YeEOMwaMANqUQGrGWKrQs_53.034740_0.092200@1300740015", "properties": {"province": "Lincolnshire", "city": "Boston", "name": "Hadwick Motors", "tags": ["car"], "country": "GB", "classifiers": [{"category": "Autos & Motor Vehicles", "type": "Retail Goods", "subcategory": "Automobile Sales"}], "href": "http://api.simplegeo.com/1.0/features/SG_2YeEOMwaMANqUQGrGWKrQs_53.034740_0.092200@1300740015.json", "address": "Church Road, Old Leake", "owner": "simplegeo", "postcode": "PE22 9LB"}}
{"geometry": {"type": "Point", "coordinates": [-2.6910049915, 51.4783248901]}, "type": "Feature", "id": "SG_1vNFYn4u6hnPBYfzdGAu6U_51.478325_-2.691005@1300740015", "properties": {"province": "City of Bristol", "city": "Bristol", "name": "Easton Business Centre", "tags": ["accomodation"], "country": "GB", "classifiers": [{"category": "Professional", "type": "Services", "subcategory": "Business Services"}], "phone": "+44 117 941 5888", "href": "http://api.simplegeo.com/1.0/features/SG_1vNFYn4u6hnPBYfzdGAu6U_51.478325_-2.691005@1300740015.json", "address": "Felix Road, Easton", "owner": "simplegeo", "postcode": "BS5 0HE"}}
{"geometry": {"type": "Point", "coordinates": [-2.6915380955, 51.4789352417]}, "type": "Feature", "id": "SG_1iLS0kpALLKWMlkx0vXAlT_51.478935_-2.691538@1300740015", "properties": {"province": "City of Bristol", "city": "Bristol", "name": "Presswise Ltd.", "tags": ["organisation", "voluntary", "charity"], "country": "GB", "classifiers": [{"category": "Organizations", "type": "Services", "subcategory": "Non-profit Organization"}], "phone": "+44 117 941 5889", "href": "http://api.simplegeo.com/1.0/features/SG_1iLS0kpALLKWMlkx0vXAlT_51.478935_-2.691538@1300740015.json", "address": "Unit 25 Easton Business Centre, Felix Road", "owner": "simplegeo", "postcode": "BS5 0HE"}}
{"geometry": {"type": "Point", "coordinates": [-2.567759037, 51.4624481201]}, "type": "Feature", "id": "SG_27qR5brQRhSOA0LO8Migzc_51.462448_-2.567759@1300740015", "properties": {"province": "City of Bristol", "city": "Bristol", "name": "Topfix Suspended Ceilings", "tags": ["ceiling", "contractor"], "country": "GB", "classifiers": [{"category": "Building & Trades", "type": "Services", "subcategory": "Construction"}], "phone": "+44 117 941 5893", "href": "http://api.simplegeo.com/1.0/features/SG_27qR5brQRhSOA0LO8Migzc_51.462448_-2.567759@1300740015.json", "address": "Unit 18 Easton Business Centre, Felix Rd", "owner": "simplegeo", "postcode": "BS5 0HE"}}
{"geometry": {"type": "Point", "coordinates": [-2.567759037, 51.4624481201]}, "type": "Feature", "id": "SG_1dBFAGmEm33pKoeC84ocJI_51.462448_-2.567759@1300740015", "properties": {"province": "City of Bristol", "city": "Bristol", "name": "I G S Services Western", "country": "GB", "classifiers": [{"category": "Professional", "type": "Services", "subcategory": "Engineering"}], "phone": "+44 117 941 5895", "href": "http://api.simplegeo.com/1.0/features/SG_1dBFAGmEm33pKoeC84ocJI_51.462448_-2.567759@1300740015.json", "address": "Easton Business Centre, 42 Felix Rd", "owner": "simplegeo", "postcode": "BS5 0HE"}}
{"geometry": {"type": "Point", "coordinates": [-2.567759037, 51.4624481201]}, "type": "Feature", "id": "SG_4EP6hOxS7SR7XYfmIzwXrm_51.462448_-2.567759@1300740015", "properties": {"province": "City of Bristol", "city": "Bristol", "name": "Multicare Hygiene Products Ltd", "tags": ["cleaning", "supply"], "country": "GB", "classifiers": [{"category": "Shopping", "type": "Retail Goods", "subcategory": "Discount & Variety Stores"}], "phone": "+44 117 941 5818", "href": "http://api.simplegeo.com/1.0/features/SG_4EP6hOxS7SR7XYfmIzwXrm_51.462448_-2.567759@1300740015.json", "address": "Easton Business Centre, Felix Rd", "owner": "simplegeo", "postcode": "BS5 0HE"}}
{"geometry": {"type": "Point", "coordinates": [-2.6919639111, 51.4788246155]}, "type": "Feature", "id": "SG_7CQ15IXkXAYwYTnJGpM3yW_51.478825_-2.691964@1300740015", "properties": {"province": "City of Bristol", "city": "Bristol", "name": "Contact Communication Services", "tags": ["radio"], "country": "GB", "classifiers": [{"category": "Utilities", "type": "Services", "subcategory": "Telephone"}], "phone": "+44 117 941 5816", "href": "http://api.simplegeo.com/1.0/features/SG_7CQ15IXkXAYwYTnJGpM3yW_51.478825_-2.691964@1300740015.json", "address": "Unit 12 Easton Business Centre, Felix Road", "owner": "simplegeo", "postcode": "BS5 0HE"}}
{"geometry": {"type": "Point", "coordinates": [-2.6910049915, 51.4781112671]}, "type": "Feature", "id": "SG_0AuvRg4DLDBVfzXoOyBZsj_51.478111_-2.691005@1300740015", "properties": {"province": "City of Bristol", "city": "Bristol", "name": "Connexion Developments Ltd.", "tags": ["valve"], "country": "GB", "classifiers": [{"category": "Building & Trades", "type": "Services", "subcategory": "Construction"}], "href": "http://api.simplegeo.com/1.0/features/SG_0AuvRg4DLDBVfzXoOyBZsj_51.478111_-2.691005@1300740015.json", "address": "Unit 1, Easton Business Centre", "owner": "simplegeo", "postcode": "BS5 0HE"}}
{"geometry": {"type": "Point", "coordinates": [-2.5693039894, 51.4632644653]}, "type": "Feature", "id": "SG_40DZpFzL03gF4okk0511lt_51.463264_-2.569304@1300740015", "properties": {"province": "City of Bristol", "city": "Bristol", "name": "S.D Cleaning Services", "tags": ["commercial"], "country": "GB", "classifiers": [{"category": "Building & Trades", "type": "Services", "subcategory": "Cleaning & Sanitation"}], "phone": "+44 117 941 5812", "href": "http://api.simplegeo.com/1.0/features/SG_40DZpFzL03gF4okk0511lt_51.463264_-2.569304@1300740015.json", "address": "Unit 11, Felix Rd, Easton", "owner": "simplegeo", "postcode": "BS5 0HE"}}
{"geometry": {"type": "Point", "coordinates": [-2.6915380955, 51.4789352417]}, "type": "Feature", "id": "SG_0VI2JjEs38UTHgbB8Zr0am_51.478935_-2.691538@1300740015", "properties": {"province": "City of Bristol", "city": "Bristol", "name": "A B Couriers", "tags": ["messenger", "courier"], "country": "GB", "classifiers": [{"category": "Government", "type": "Public Place", "subcategory": "Post Office"}], "phone": "+44 117 941 5828", "href": "http://api.simplegeo.com/1.0/features/SG_0VI2JjEs38UTHgbB8Zr0am_51.478935_-2.691538@1300740015.json", "address": "Unit 22 Easton Business Centre, Felix Road", "owner": "simplegeo", "postcode": "BS5 0HE"}}
{"geometry": {"type": "Point", "coordinates": [-2.567759037, 51.4624481201]}, "type": "Feature", "id": "SG_50xQd6wzGo7BGVdeKy3kCi_51.462448_-2.567759@1300740015", "properties": {"province": "City of Bristol", "city": "Bristol", "name": "Metro Rod", "tags": ["drain", "clearance", "sewer"], "country": "GB", "classifiers": [{"category": "Building & Trades", "type": "Services", "subcategory": "Plumbing"}], "phone": "+44 117 941 5820", "href": "http://api.simplegeo.com/1.0/features/SG_50xQd6wzGo7BGVdeKy3kCi_51.462448_-2.567759@1300740015.json", "address": "Easton Business Centre, Felix Rd", "owner": "simplegeo", "postcode": "BS5 0HE"}}
{"geometry": {"type": "Point", "coordinates": [-2.6913330555, 51.4783782959]}, "type": "Feature", "id": "SG_05ouHYQEkqcnWf6EhjlODB_51.478378_-2.691333@1300740015", "properties": {"province": "City of Bristol", "city": "Bristol", "name": "Progress (South West) Ltd.", "tags": ["organisation", "voluntary", "charity"], "country": "GB", "classifiers": [{"category": "Organizations", "type": "Services", "subcategory": "Non-profit Organization"}], "phone": "+44 117 941 5849", "href": "http://api.simplegeo.com/1.0/features/SG_05ouHYQEkqcnWf6EhjlODB_51.478378_-2.691333@1300740015.json", "address": "Unit 4 Easton Business Centre, Felix Road Easton", "owner": "simplegeo", "postcode": "BS5 0HE"}}
{"geometry": {"type": "Point", "coordinates": [-2.567759037, 51.4624481201]}, "type": "Feature", "id": "SG_4CjEDP3tXd0v81M9bkibFY_51.462448_-2.567759@1300740015", "properties": {"province": "City of Bristol", "city": "Bristol", "name": "Bristol & District People First", "tags": ["organisation", "voluntary", "charity"], "country": "GB", "classifiers": [{"category": "Organizations", "type": "Services", "subcategory": "Non-profit Organization"}], "phone": "+44 117 941 5842", "href": "http://api.simplegeo.com/1.0/features/SG_4CjEDP3tXd0v81M9bkibFY_51.462448_-2.567759@1300740015.json", "address": "Unit 35, Easton Business Centre, Felix Road", "owner": "simplegeo", "postcode": "BS5 0HE"}}
{"geometry": {"type": "Point", "coordinates": [-2.6910049915, 51.4783248901]}, "type": "Feature", "id": "SG_5IjaIMzwbDtiWH76fF5bgx_51.478325_-2.691005@1300740015", "properties": {"province": "City of Bristol", "city": "Bristol", "name": "Gardener,Devon", "tags": ["heating"], "country": "GB", "classifiers": [{"category": "Building & Trades", "type": "Services", "subcategory": "Plumbing"}], "href": "http://api.simplegeo.com/1.0/features/SG_5IjaIMzwbDtiWH76fF5bgx_51.478325_-2.691005@1300740015.json", "address": "Easton Business Centre, Felix Rd", "owner": "simplegeo", "postcode": "BS5 0HE"}}
{"geometry": {"type": "Point", "coordinates": [-2.6910049915, 51.4783248901]}, "type": "Feature", "id": "SG_2cR25XgH7BN1NY3Zm7Hlo6_51.478325_-2.691005@1300740015", "properties": {"province": "City of Bristol", "city": "Bristol", "name": "Children's Information Service for Bristol (Bristol Cis)", "tags": ["information"], "country": "GB", "classifiers": [{"category": "Professional", "type": "Services", "subcategory": "Computer Services"}], "phone": "+44 845 129 7217", "href": "http://api.simplegeo.com/1.0/features/SG_2cR25XgH7BN1NY3Zm7Hlo6_51.478325_-2.691005@1300740015.json", "address": "Unit 40, Easton Business Centre, Felix Road", "owner": "simplegeo", "postcode": "BS5 0HE"}}
{"geometry": {"type": "Point", "coordinates": [-2.6910049915, 51.4783248901]}, "type": "Feature", "id": "SG_29kcHvKiD1j45ifR3ZEuWt_51.478325_-2.691005@1300740015", "properties": {"province": "City of Bristol", "city": "Bristol", "name": "East Bristol Enterprise Ltd.", "tags": ["consultant", "business"], "country": "GB", "classifiers": [{"category": "Professional", "type": "Services", "subcategory": "Management & Consulting"}], "phone": "+44 117 955 4812", "href": "http://api.simplegeo.com/1.0/features/SG_29kcHvKiD1j45ifR3ZEuWt_51.478325_-2.691005@1300740015.json", "address": "Felix Road, Easton", "owner": "simplegeo", "postcode": "BS5 0HE"}}
{"geometry": {"type": "Point", "coordinates": [-2.567759037, 51.4624481201]}, "type": "Feature", "id": "SG_54V92UREdAD9nW8edmv5cp_51.462448_-2.567759@1300740015", "properties": {"province": "City of Bristol", "city": "Bristol", "name": "Wellman Aerospace (Midcast Engineering)", "tags": ["aircraft", "component"], "country": "GB", "classifiers": [{"category": "Manufacturing", "type": "Manufacturing & Wholesale Goods", "subcategory": "Aerospace"}], "phone": "+44 117 941 5880", "href": "http://api.simplegeo.com/1.0/features/SG_54V92UREdAD9nW8edmv5cp_51.462448_-2.567759@1300740015.json", "address": "Unit 37 Easton Business Centre, Felix Rd", "owner": "simplegeo", "postcode": "BS5 0HE"}}
{"geometry": {"type": "Point", "coordinates": [-2.567759037, 51.4624481201]}, "type": "Feature", "id": "SG_0Wq1yITMHTkX7uCg8MHykp_51.462448_-2.567759@1300740015", "properties": {"province": "City of Bristol", "city": "Bristol", "name": "Safe Transport", "tags": ["messenger", "courier"], "country": "GB", "classifiers": [{"category": "Government", "type": "Public Place", "subcategory": "Post Office"}], "phone": "+44 117 941 5876", "href": "http://api.simplegeo.com/1.0/features/SG_0Wq1yITMHTkX7uCg8MHykp_51.462448_-2.567759@1300740015.json", "address": "Unit 12 Easton Business Centre, Felix Rd", "owner": "simplegeo", "postcode": "BS5 0HE"}}
{"geometry": {"type": "Point", "coordinates": [-2.6910049915, 51.4783248901]}, "type": "Feature", "id": "SG_0S6IVYDOYfBsIxGjYyBMG2_51.478325_-2.691005@1300740015", "properties": {"province": "City of Bristol", "city": "Bristol", "name": "Vision Print", "tags": ["tape", "video"], "country": "GB", "classifiers": [{"category": "Shopping", "type": "Retail Goods", "subcategory": "Computers & Home Electronics"}], "phone": "+44 117 941 5869", "href": "http://api.simplegeo.com/1.0/features/SG_0S6IVYDOYfBsIxGjYyBMG2_51.478325_-2.691005@1300740015.json", "address": "Easton Business Centre, Felix Road", "owner": "simplegeo", "postcode": "BS5 0HE"}}
{"geometry": {"type": "Point", "coordinates": [-2.6910049915, 51.4783248901]}, "type": "Feature", "id": "SG_0aMRDZHHFVZlvF7BdcchUy_51.478325_-2.691005@1300740015", "properties": {"province": "City of Bristol", "city": "Bristol", "name": "Time2share", "tags": ["organisation", "voluntary", "charity"], "country": "GB", "classifiers": [{"category": "Organizations", "type": "Services", "subcategory": "Non-profit Organization"}], "phone": "+44 117 941 5868", "href": "http://api.simplegeo.com/1.0/features/SG_0aMRDZHHFVZlvF7BdcchUy_51.478325_-2.691005@1300740015.json", "address": "Unit 55, Easton Business Centre, Felix Road", "owner": "simplegeo", "postcode": "BS5 0HE"}}
{"geometry": {"type": "Point", "coordinates": [-2.6910049915, 51.4783248901]}, "type": "Feature", "id": "SG_4oaKrFkpqwOVJXz5UEiKeQ_51.478325_-2.691005@1300740015", "properties": {"province": "City of Bristol", "city": "Bristol", "name": "Groups in Learning", "tags": ["product", "centre"], "country": "GB", "classifiers": [{"category": "Education", "type": "Public Place", "subcategory": "Special Training"}], "href": "http://api.simplegeo.com/1.0/features/SG_4oaKrFkpqwOVJXz5UEiKeQ_51.478325_-2.691005@1300740015.json", "address": "Easton Business Centre, Felix Rd", "owner": "simplegeo", "postcode": "BS5 0HE"}}
{"geometry": {"type": "Point", "coordinates": [-2.6916029453, 51.4789772034]}, "type": "Feature", "id": "SG_47GnMehBXXPj70aqkf4ycC_51.478977_-2.691603@1300740015", "properties": {"province": "City of Bristol", "city": "Bristol", "name": "Wardrobe Design Centre", "tags": ["design"], "country": "GB", "classifiers": [{"category": "Manufacturing", "type": "Manufacturing & Wholesale Goods", "subcategory": "Furniture"}], "phone": "+44 117 941 5858", "href": "http://api.simplegeo.com/1.0/features/SG_47GnMehBXXPj70aqkf4ycC_51.478977_-2.691603@1300740015.json", "address": "Unit 17 Easton Business Centre, Felix Road", "owner": "simplegeo", "postcode": "BS5 0HE"}}
{"geometry": {"type": "Point", "coordinates": [-2.6910049915, 51.4783248901]}, "type": "Feature", "id": "SG_2GUbAUJorCf2EkOaNQ69JM_51.478325_-2.691005@1300740015", "properties": {"province": "City of Bristol", "city": "Bristol", "name": "Western Eye Television", "tags": ["audio-visual"], "country": "GB", "classifiers": [{"category": "Communications", "type": "Services", "subcategory": ""}], "href": "http://api.simplegeo.com/1.0/features/SG_2GUbAUJorCf2EkOaNQ69JM_51.478325_-2.691005@1300740015.json", "address": "Easton Business Centre Felix Road", "owner": "simplegeo", "postcode": "BS5 0HE"}}
{"geometry": {"type": "Point", "coordinates": [-2.567759037, 51.4624481201]}, "type": "Feature", "id": "SG_0PL4FShczYmlPOIsS4NDHH_51.462448_-2.567759@1300740015", "properties": {"province": "City of Bristol", "city": "Bristol", "name": "Avon Citizen Advocacy", "tags": ["organisation", "voluntary", "charity"], "country": "GB", "classifiers": [{"category": "Organizations", "type": "Services", "subcategory": "Non-profit Organization"}], "phone": "+44 117 941 5838", "href": "http://api.simplegeo.com/1.0/features/SG_0PL4FShczYmlPOIsS4NDHH_51.462448_-2.567759@1300740015.json", "address": "46 Easton Business Centre, Felix Rd", "owner": "simplegeo", "postcode": "BS5 0HE"}}
{"geometry": {"type": "Point", "coordinates": [-2.6918339729, 51.4787406921]}, "type": "Feature", "id": "SG_4rYV9ftZ191aRIGhnYgwQJ_51.478741_-2.691834@1300740015", "properties": {"province": "City of Bristol", "city": "Bristol", "name": "Electrio Ltd.", "tags": ["contractor", "electrical", "engineer"], "country": "GB", "classifiers": [{"category": "Professional", "type": "Services", "subcategory": "Engineering"}], "phone": "+44 117 941 5833", "href": "http://api.simplegeo.com/1.0/features/SG_4rYV9ftZ191aRIGhnYgwQJ_51.478741_-2.691834@1300740015.json", "address": "Unit 9 Easton Business Centre, Felix Road", "owner": "simplegeo", "postcode": "BS5 0HE"}}
{"geometry": {"type": "Point", "coordinates": [-2.6910049915, 51.4783248901]}, "type": "Feature", "id": "SG_0YOeRMrT0R1v2PjnbTHiuN_51.478325_-2.691005@1300740015", "properties": {"province": "City of Bristol", "city": "Bristol", "name": "Webbair Ltd.", "tags": ["equipment", "pneumatic", "system"], "country": "GB", "classifiers": [{"category": "Wholesale", "type": "Manufacturing & Wholesale Goods", "subcategory": "Machinery & Supplies"}], "href": "http://api.simplegeo.com/1.0/features/SG_0YOeRMrT0R1v2PjnbTHiuN_51.478325_-2.691005@1300740015.json", "address": "Easton Business Centre, Felix Road", "owner": "simplegeo", "postcode": "BS5 0HE"}}
{"geometry": {"type": "Point", "coordinates": [-2.6917328835, 51.479057312]}, "type": "Feature", "id": "SG_5sYoqIbEtDZEgNx6btLHn7_51.479057_-2.691733@1300740015", "properties": {"province": "City of Bristol", "city": "Bristol", "name": "Piston Broke", "country": "GB", "classifiers": [{"category": "Autos & Motor Vehicles", "type": "Retail Goods", "subcategory": "Motorcycle Sales"}], "phone": "+44 117 941 2300", "href": "http://api.simplegeo.com/1.0/features/SG_5sYoqIbEtDZEgNx6btLHn7_51.479057_-2.691733@1300740015.json", "address": "Unit 15 Easton Business Centre, Felix Road", "owner": "simplegeo", "postcode": "BS5 0HE"}}
{"geometry": {"type": "Point", "coordinates": [-2.6910049915, 51.4783248901]}, "type": "Feature", "id": "SG_2LqFuvXWURvBDJJbZFnX0S_51.478325_-2.691005@1300740015", "properties": {"province": "City of Bristol", "city": "Bristol", "name": "E T Systems Ltd", "tags": ["system", "software"], "country": "GB", "classifiers": [{"category": "Professional", "type": "Services", "subcategory": "Computer Services"}], "phone": "+44 117 941 5874", "href": "http://api.simplegeo.com/1.0/features/SG_2LqFuvXWURvBDJJbZFnX0S_51.478325_-2.691005@1300740015.json", "address": "Unit 19 Easton Business Centre, Felix Rd, Easton", "owner": "simplegeo", "postcode": "BS5 0HE"}}
{"geometry": {"type": "Point", "coordinates": [-2.567759037, 51.4624481201]}, "type": "Feature", "id": "SG_5XypA2G4JdENXUEGIE2HN5_51.462448_-2.567759@1300740015", "properties": {"province": "City of Bristol", "city": "Bristol", "name": "Hub 45 Ltd", "tags": ["data", "network"], "country": "GB", "classifiers": [{"category": "Communications", "type": "Services", "subcategory": ""}], "phone": "+44 117 941 5809", "href": "http://api.simplegeo.com/1.0/features/SG_5XypA2G4JdENXUEGIE2HN5_51.462448_-2.567759@1300740015.json", "address": "Easton Business Centre, Felix Rd, Easton", "owner": "simplegeo", "postcode": "BS5 0HE"}}
{"geometry": {"type": "Point", "coordinates": [-2.6910049915, 51.4783248901]}, "type": "Feature", "id": "SG_6V4GXuJE47a5Pp2bdn2Gqr_51.478325_-2.691005@1300740015", "properties": {"province": "City of Bristol", "city": "Bristol", "name": "Co-Opportunity Ltd", "tags": ["accountant"], "country": "GB", "classifiers": [{"category": "Professional", "type": "Services", "subcategory": "Accounting & Tax Preparation"}], "href": "http://api.simplegeo.com/1.0/features/SG_6V4GXuJE47a5Pp2bdn2Gqr_51.478325_-2.691005@1300740015.json", "address": "Unit 59 Easton Business Centre, Felix Road", "owner": "simplegeo", "postcode": "BS5 0HE"}}
{"geometry": {"type": "Point", "coordinates": [-2.6910049915, 51.4783248901]}, "type": "Feature", "id": "SG_6yhNTf5dM2T81xoTrvhXkd_51.478325_-2.691005@1300740015", "properties": {"province": "City of Bristol", "city": "Bristol", "name": "Young Mothers Group Trust Ltd.", "tags": ["organisation", "centre"], "country": "GB", "classifiers": [{"category": "Community Center", "type": "Public Place", "subcategory": "Youth"}], "phone": "+44 117 941 5838", "href": "http://api.simplegeo.com/1.0/features/SG_6yhNTf5dM2T81xoTrvhXkd_51.478325_-2.691005@1300740015.json", "address": "Unit 34, Easton Business Centre, Felix Road", "owner": "simplegeo", "postcode": "BS5 0HE"}}
{"geometry": {"type": "Point", "coordinates": [-2.6915659904, 51.4785614014]}, "type": "Feature", "id": "SG_4qIfWgQVQwIa5yC06XKrFE_51.478561_-2.691566@1300740015", "properties": {"province": "City of Bristol", "city": "Bristol", "name": "Action Couriers (Bm) Ltd", "tags": ["messenger", "courier"], "country": "GB", "classifiers": [{"category": "Government", "type": "Public Place", "subcategory": "Post Office"}], "href": "http://api.simplegeo.com/1.0/features/SG_4qIfWgQVQwIa5yC06XKrFE_51.478561_-2.691566@1300740015.json", "address": "Unit 5 Easton Business Centre, Felix Road", "owner": "simplegeo", "postcode": "BS5 0HE"}}
{"geometry": {"type": "Point", "coordinates": [-2.5645189285, 51.4634590149]}, "type": "Feature", "id": "SG_1HRj1g2k9cRHKYQK21hXY4_51.463459_-2.564519@1300740015", "properties": {"province": "City of Bristol", "city": "Bristol", "name": "Silai Project Ltd", "tags": ["project", "gov", "community"], "country": "GB", "classifiers": [{"category": "Government", "type": "Public Place", "subcategory": "Office"}], "phone": "+44 117 955 4484", "href": "http://api.simplegeo.com/1.0/features/SG_1HRj1g2k9cRHKYQK21hXY4_51.463459_-2.564519@1300740015.json", "address": "All Hallows Rd", "owner": "simplegeo", "postcode": "BS5 0HH"}}
{"geometry": {"type": "Point", "coordinates": [-2.6910049915, 51.4783248901]}, "type": "Feature", "id": "SG_2Ktb2uHjTAMeLqluRzl3MJ_51.478325_-2.691005@1300740015", "properties": {"province": "City of Bristol", "city": "Bristol", "name": "Easton Garage", "tags": ["modification", "garage"], "country": "GB", "classifiers": [{"category": "Retail", "type": "Services", "subcategory": "Auto Repair"}], "href": "http://api.simplegeo.com/1.0/features/SG_2Ktb2uHjTAMeLqluRzl3MJ_51.478325_-2.691005@1300740015.json", "address": "Adelaide Place, Easton", "owner": "simplegeo", "postcode": "BS5 0HJ"}}
{"geometry": {"type": "Point", "coordinates": [-2.5648748875, 51.4652366638]}, "type": "Feature", "id": "SG_2LSIIfPnrmBt5D0HU61LeO_51.465237_-2.564875@1300740015", "properties": {"province": "City of Bristol", "city": "Bristol", "name": "Spring Woods Nursery School", "tags": ["local", "creche"], "country": "GB", "classifiers": [{"category": "Farming", "type": "Manufacturing & Wholesale Goods", "subcategory": "Nursery"}, {"category": "Government", "type": "Public Place", "subcategory": "Office"}], "phone": "+44 117 955 8535", "href": "http://api.simplegeo.com/1.0/features/SG_2LSIIfPnrmBt5D0HU61LeO_51.465237_-2.564875@1300740015.json", "address": "Bannerman Road", "owner": "simplegeo", "postcode": "BS5 0HL"}}
{"geometry": {"type": "Point", "coordinates": [-2.565169096, 51.4636917114]}, "type": "Feature", "id": "SG_2AusL1PpqR4InUbCsuO5LI_51.463692_-2.565169@1300740015", "properties": {"province": "City of Bristol", "city": "Bristol", "name": "Brian Crouch", "tags": ["dry", "lining", "plasterers", "screeders"], "country": "GB", "classifiers": [{"category": "Building & Trades", "type": "Services", "subcategory": "Construction"}], "phone": "+44 117 939 5140", "href": "http://api.simplegeo.com/1.0/features/SG_2AusL1PpqR4InUbCsuO5LI_51.463692_-2.565169@1300740015.json", "address": "12 Graham Rd", "owner": "simplegeo", "postcode": "BS5 0HP"}}
{"geometry": {"type": "Point", "coordinates": [-2.6910049915, 51.4783248901]}, "type": "Feature", "id": "SG_3vPREdz2Rtf4fLv4wyKIWz_51.478325_-2.691005@1300740015", "properties": {"province": "City of Bristol", "city": "Bristol", "name": "Nan Pang", "tags": ["chip"], "country": "GB", "classifiers": [{"category": "Food & Beverages", "type": "Retail Goods", "subcategory": "Meat & Fish"}], "href": "http://api.simplegeo.com/1.0/features/SG_3vPREdz2Rtf4fLv4wyKIWz_51.478325_-2.691005@1300740015.json", "address": "197 Easton Road", "owner": "simplegeo", "postcode": "BS5 0HQ"}}
{"geometry": {"type": "Point", "coordinates": [-2.5652189255, 51.461769104]}, "type": "Feature", "id": "SG_0lrp5yjMgNfLRq22eoUEWA_51.461769_-2.565219@1300740015", "properties": {"province": "City of Bristol", "city": "Bristol", "name": "Severn Ironworks", "tags": ["blacksmith", "forgemasters"], "country": "GB", "classifiers": [{"category": "Manufacturing", "type": "Manufacturing & Wholesale Goods", "subcategory": "Metals"}], "phone": "+44 117 939 9946", "href": "http://api.simplegeo.com/1.0/features/SG_0lrp5yjMgNfLRq22eoUEWA_51.461769_-2.565219@1300740015.json", "address": "179a Easton Rd", "owner": "simplegeo", "postcode": "BS5 0HQ"}}
{"geometry": {"type": "Point", "coordinates": [-2.5652189255, 51.461769104]}, "type": "Feature", "id": "SG_22cGXRkyPS1iuAR64s4BOL_51.461769_-2.565219@1300740015", "properties": {"province": "City of Bristol", "city": "Bristol", "name": "Starvirus Promotional Inflatables", "tags": ["inflatables", "bouncy", "castle"], "country": "GB", "classifiers": [{"category": "Shopping", "type": "Retail Goods", "subcategory": "Party Supplies"}], "phone": "+44 117 939 3314", "href": "http://api.simplegeo.com/1.0/features/SG_22cGXRkyPS1iuAR64s4BOL_51.461769_-2.565219@1300740015.json", "address": "179 Eastern Rd, Easten", "owner": "simplegeo", "postcode": "BS5 0HQ"}}
{"geometry": {"type": "Point", "coordinates": [-2.5645189285, 51.4634590149]}, "type": "Feature", "id": "SG_2BTDBqCPFRS7MUDLaHsXSR_51.463459_-2.564519@1300740015", "properties": {"province": "City of Bristol", "city": "Bristol", "name": "Bannerman Road Primary School", "tags": ["local", "authority"], "country": "GB", "classifiers": [{"category": "Education", "type": "Public Place", "subcategory": "School"}, {"category": "Government", "type": "Public Place", "subcategory": "Office"}], "phone": "+44 117 955 7179", "href": "http://api.simplegeo.com/1.0/features/SG_2BTDBqCPFRS7MUDLaHsXSR_51.463459_-2.564519@1300740015.json", "address": "All Hallows Road", "owner": "simplegeo", "postcode": "BS5 0HR"}}
{"geometry": {"type": "Point", "coordinates": [-2.6910049915, 51.4783248901]}, "type": "Feature", "id": "SG_6uqhMSwIB6lK9n5tWIwi17_51.478325_-2.691005@1300740015", "properties": {"province": "City of Bristol", "city": "Bristol", "name": "Bristol Family Homeless Trust", "tags": ["organisation", "voluntary", "charity"], "country": "GB", "classifiers": [{"category": "Organizations", "type": "Services", "subcategory": "Non-profit Organization"}], "href": "http://api.simplegeo.com/1.0/features/SG_6uqhMSwIB6lK9n5tWIwi17_51.478325_-2.691005@1300740015.json", "address": "24 All Hallows Rd, Easton", "owner": "simplegeo", "postcode": "BS5 0HW"}}
{"geometry": {"type": "Point", "coordinates": [-0.3835589886, 51.4753341675]}, "type": "Feature", "id": "SG_2LwbWLdLfZ4JfN2iU2ZDZK_51.475334_-0.383559@1300740015", "properties": {"province": "Greater London", "city": "Hounslow", "name": "Treble Clef International Ltd", "tags": ["music"], "country": "GB", "classifiers": [{"category": "Professional", "type": "Services", "subcategory": "Management & Consulting"}], "phone": "+44 20 8570 4091", "href": "http://api.simplegeo.com/1.0/features/SG_2LwbWLdLfZ4JfN2iU2ZDZK_51.475334_-0.383559@1300740015.json", "address": "6 Scott Trimmer Way", "owner": "simplegeo", "postcode": "TW3 4LZ"}}
{"geometry": {"type": "Point", "coordinates": [-0.3785710037, 51.4758758545]}, "type": "Feature", "id": "SG_0DKGhReh0Wkjj7j62uFlt8_51.475876_-0.378571@1300740015", "properties": {"province": "Greater London", "city": "Hounslow", "name": "Autolift", "tags": ["breakdown", "recovery"], "country": "GB", "classifiers": [{"category": "Sports & Exercise", "type": "Entertainment", "subcategory": "Tennis Court"}], "phone": "+44 20 8737 9866", "href": "http://api.simplegeo.com/1.0/features/SG_0DKGhReh0Wkjj7j62uFlt8_51.475876_-0.378571@1300740015.json", "address": "38 Queenswood Av", "owner": "simplegeo", "postcode": "TW3 4LH"}}
{"geometry": {"type": "Point", "coordinates": [-0.3795560002, 51.4748077393]}, "type": "Feature", "id": "SG_1QEKUUcRgUUWuaA5FvtDpe_51.474808_-0.379556@1300740015", "properties": {"province": "Greater London", "city": "Hounslow", "name": "Mers Recovery Service", "tags": ["breakdown", "recovery"], "country": "GB", "classifiers": [{"category": "Sports & Exercise", "type": "Entertainment", "subcategory": "Tennis Court"}], "phone": "+44 20 8572 4414", "href": "http://api.simplegeo.com/1.0/features/SG_1QEKUUcRgUUWuaA5FvtDpe_51.474808_-0.379556@1300740015.json", "address": "41 Moulton Avenue", "owner": "simplegeo", "postcode": "TW3 4LN"}}
{"geometry": {"type": "Point", "coordinates": [-0.3741270006, 51.4769973755]}, "type": "Feature", "id": "SG_53V8feUsWMHgfVxAt4xeGI_51.476997_-0.374127@1300740015", "properties": {"province": "Greater London", "city": "Hounslow", "name": "Wellington Primary School", "tags": ["local", "authority"], "country": "GB", "classifiers": [{"category": "Education", "type": "Public Place", "subcategory": "School"}], "phone": "+44 20 8570 6130", "href": "http://api.simplegeo.com/1.0/features/SG_53V8feUsWMHgfVxAt4xeGI_51.476997_-0.374127@1300740015.json", "address": "Sutton Lane", "owner": "simplegeo", "postcode": "TW3 4LB"}}
{"geometry": {"type": "Point", "coordinates": [-0.7284200191, 51.3978691101]}, "type": "Feature", "id": "SG_1yla6r8z8msKZCwUHVguD3_51.397869_-0.728420@1300740015", "properties": {"province": "Berkshire", "city": "Bracknell", "name": "Harwood,Ian,", "tags": ["car", "graphic", "designer"], "country": "GB", "classifiers": [{"category": "Autos & Motor Vehicles", "type": "Retail Goods", "subcategory": "Automobile Sales"}, {"category": "Professional", "type": "Services", "subcategory": "Art Services"}], "href": "http://api.simplegeo.com/1.0/features/SG_1yla6r8z8msKZCwUHVguD3_51.397869_-0.728420@1300740015.json", "address": "Unit 2 Forest Pk Business Units 1, 18-25 Horndean Rd", "owner": "simplegeo", "postcode": "RG12 0XQ"}}
{"geometry": {"type": "Point", "coordinates": [-0.7321969867, 51.3919219971]}, "type": "Feature", "id": "SG_7J8Oled2ktTKAlW8V3Me9G_51.391922_-0.732197@1300740015", "properties": {"province": "Berkshire", "city": "Bracknell", "name": "Blockbuster Video", "tags": ["video", "library"], "country": "GB", "classifiers": [{"category": "Cinema", "type": "Entertainment", "subcategory": "Movie Rental"}], "phone": "+44 1344 861360", "href": "http://api.simplegeo.com/1.0/features/SG_7J8Oled2ktTKAlW8V3Me9G_51.391922_-0.732197@1300740015.json", "address": "Unit 1 Forest Park", "owner": "simplegeo", "postcode": "RG12 0XQ"}}
{"geometry": {"type": "Point", "coordinates": [-0.7285299897, 51.397983551]}, "type": "Feature", "id": "SG_7dcVesf7YpcHJrHkEHaGgq_51.397984_-0.728530@1300740015", "properties": {"province": "Berkshire", "city": "Bracknell", "name": "Ultimate Leisure", "tags": ["machine", "amusement"], "country": "GB", "classifiers": [{"category": "Recreation", "type": "Entertainment", "subcategory": "Arcade"}], "phone": "+44 1344 482562", "href": "http://api.simplegeo.com/1.0/features/SG_7dcVesf7YpcHJrHkEHaGgq_51.397984_-0.728530@1300740015.json", "address": "22 Horndean Road", "owner": "simplegeo", "postcode": "RG12 0XQ"}}
{"geometry": {"type": "Point", "coordinates": [-0.7290719748, 51.3981666565]}, "type": "Feature", "id": "SG_2SiFf58lmI71R7ozPAoJFn_51.398167_-0.729072@1300740015", "properties": {"province": "Berkshire", "city": "Bracknell", "name": "Ade Consulting Ltd", "tags": ["consultant", "business"], "country": "GB", "classifiers": [{"category": "Professional", "type": "Services", "subcategory": "Management & Consulting"}], "href": "http://api.simplegeo.com/1.0/features/SG_2SiFf58lmI71R7ozPAoJFn_51.398167_-0.729072@1300740015.json", "address": "3-5 Horndean Road", "owner": "simplegeo", "postcode": "RG12 0XQ"}}
{"geometry": {"type": "Point", "coordinates": [-0.7284200191, 51.3978691101]}, "type": "Feature", "id": "SG_0sklNjTsuOKK3IDFt4R8Wg_51.397869_-0.728420@1300740015", "properties": {"province": "Berkshire", "city": "Bracknell", "name": "Forest Park Surgery", "tags": ["practitioners"], "country": "GB", "classifiers": [{"category": "Health Services", "type": "Services", "subcategory": "Doctor"}], "phone": "+44 1344 421364", "href": "http://api.simplegeo.com/1.0/features/SG_0sklNjTsuOKK3IDFt4R8Wg_51.397869_-0.728420@1300740015.json", "address": "Forest Park Surgery, 3-5 Horndean Rd", "owner": "simplegeo", "postcode": "RG12 0XQ"}}
{"geometry": {"type": "Point", "coordinates": [-0.7284849882, 51.398223877]}, "type": "Feature", "id": "SG_7mV0CqQ5HPO5zsuc1zi0PJ_51.398224_-0.728485@1300740015", "properties": {"province": "Berkshire", "city": "Bracknell", "name": "Forest Park Community Centre", "tags": ["centre"], "country": "GB", "classifiers": [{"category": "Community Center", "type": "Public Place", "subcategory": ""}], "href": "http://api.simplegeo.com/1.0/features/SG_7mV0CqQ5HPO5zsuc1zi0PJ_51.398224_-0.728485@1300740015.json", "address": "Horndean Rd, Forest Pk", "owner": "simplegeo", "postcode": "RG12 0XQ"}}
{"geometry": {"type": "Point", "coordinates": [-0.7321969867, 51.3919219971]}, "type": "Feature", "id": "SG_5rBAdygtUsb8AyxjpoC6wF_51.391922_-0.732197@1300740015", "properties": {"province": "Berkshire", "city": "Bracknell", "name": "Scarlet Couriers", "tags": ["messenger", "courier"], "country": "GB", "classifiers": [{"category": "Government", "type": "Public Place", "subcategory": "Post Office"}], "phone": "+44 1344 489099", "href": "http://api.simplegeo.com/1.0/features/SG_5rBAdygtUsb8AyxjpoC6wF_51.391922_-0.732197@1300740015.json", "address": "Unit 5, Forest Park Business Centre", "owner": "simplegeo", "postcode": "RG12 0XQ"}}
{"geometry": {"type": "Point", "coordinates": [-0.7321969867, 51.3919219971]}, "type": "Feature", "id": "SG_1bO9JeLnT7Im7icuN3NkXd_51.391922_-0.732197@1300740015", "properties": {"province": "Berkshire", "city": "Bracknell", "name": "Advantage Copying Services Ltd.", "tags": ["duplicating", "copying"], "country": "GB", "classifiers": [{"category": "Professional", "type": "Services", "subcategory": "Printing & Photocopies"}], "href": "http://api.simplegeo.com/1.0/features/SG_1bO9JeLnT7Im7icuN3NkXd_51.391922_-0.732197@1300740015.json", "address": "Unit 1, Forest Park Business Unit", "owner": "simplegeo", "postcode": "RG12 0XQ"}}
{"geometry": {"type": "Point", "coordinates": [-0.7284200191, 51.3978691101]}, "type": "Feature", "id": "SG_48JFPKOloRuLdlr0igevjM_51.397869_-0.728420@1300740015", "properties": {"province": "Berkshire", "city": "Bracknell", "name": "I Horwood", "tags": ["exhibition"], "country": "GB", "classifiers": [{"category": "Professional", "type": "Services", "subcategory": ""}], "phone": "+44 1344 422466", "href": "http://api.simplegeo.com/1.0/features/SG_48JFPKOloRuLdlr0igevjM_51.397869_-0.728420@1300740015.json", "address": "Forest Park Business Units, 25 Horndean Road", "owner": "simplegeo", "postcode": "RG12 0XQ"}}
{"geometry": {"type": "Point", "coordinates": [-0.7285320163, 51.3980178833]}, "type": "Feature", "id": "SG_7MppZWTMc0upUHeOOL2nMX_51.398018_-0.728532@1300740015", "properties": {"province": "Berkshire", "city": "Bracknell", "name": "Telecom Tactics & Systems Ltd.", "tags": ["telecommunication"], "country": "GB", "classifiers": [{"category": "Utilities", "type": "Services", "subcategory": "Telephone"}], "phone": "+44 1344 381200", "href": "http://api.simplegeo.com/1.0/features/SG_7MppZWTMc0upUHeOOL2nMX_51.398018_-0.728532@1300740015.json", "address": "21 Horndean Road", "owner": "simplegeo", "postcode": "RG12 0XQ"}}
{"geometry": {"type": "Point", "coordinates": [-0.7290719748, 51.3981666565]}, "type": "Feature", "id": "SG_62S3GaaUcshZjjMTkfDCNy_51.398167_-0.729072@1300740015", "properties": {"province": "Berkshire", "city": "Bracknell", "name": "Kevin Beare & Co", "tags": ["accountant"], "country": "GB", "classifiers": [{"category": "Professional", "type": "Services", "subcategory": "Accounting & Tax Preparation"}], "phone": "+44 1344 305244", "href": "http://api.simplegeo.com/1.0/features/SG_62S3GaaUcshZjjMTkfDCNy_51.398167_-0.729072@1300740015.json", "address": "Forest House, 3-5 Horndean Road", "owner": "simplegeo", "postcode": "RG12 0XQ"}}
{"geometry": {"type": "Point", "coordinates": [1.0399650335, 51.2650413513]}, "type": "Feature", "id": "SG_6W12Edh1u7sFFxGsXSqflT_51.265041_1.039965@1300740015", "properties": {"province": "Kent", "city": "Canterbury", "name": "Chartham Cemetery", "tags": ["cemetery", "crematorium"], "country": "GB", "classifiers": [{"category": "Retail", "type": "Services", "subcategory": "Funeral Services"}], "href": "http://api.simplegeo.com/1.0/features/SG_6W12Edh1u7sFFxGsXSqflT_51.265041_1.039965@1300740015.json", "address": "Ashford Road, Chartham", "owner": "simplegeo", "postcode": "CT4 7NY"}}
{"geometry": {"type": "Point", "coordinates": [1.0050100088, 51.2591896057]}, "type": "Feature", "id": "SG_5koybUYPE41cdJiNPzMGDH_51.259190_1.005010@1300740015", "properties": {"province": "Kent", "city": "Canterbury", "name": "Ellison Contractors", "tags": ["plant", "machinery"], "country": "GB", "classifiers": [{"category": "Building & Trades", "type": "Services", "subcategory": "Equipment Rental"}], "href": "http://api.simplegeo.com/1.0/features/SG_5koybUYPE41cdJiNPzMGDH_51.259190_1.005010@1300740015.json", "address": "2 Cornmill Cotts, Ashford Road", "owner": "simplegeo", "postcode": "CT4 7NY"}}
{"geometry": {"type": "Point", "coordinates": [-0.3779970109, 51.4761352539]}, "type": "Feature", "id": "SG_3yrjlPm2H7BNJJDmp7FIWz_51.476135_-0.377997@1300740015", "properties": {"province": "Greater London", "city": "Hounslow", "name": "Glass Agency", "tags": ["merchant", "glass"], "country": "GB", "classifiers": [{"category": "Wholesale", "type": "Manufacturing & Wholesale Goods", "subcategory": "Construction Materials"}], "phone": "+44 20 8572 1207", "href": "http://api.simplegeo.com/1.0/features/SG_3yrjlPm2H7BNJJDmp7FIWz_51.476135_-0.377997@1300740015.json", "address": "41 Queenswood Avenue", "owner": "simplegeo", "postcode": "TW3 4LG"}}
{"geometry": {"type": "Point", "coordinates": [-1.9501039982, 53.0336151123]}, "type": "Feature", "id": "SG_6hdVZZ71D6HPNKFAcktjiZ_53.033615_-1.950104@1300740015", "properties": {"province": "Staffordshire", "city": "Stoke-on-trent", "name": "Foxtwood Kennels", "tags": ["boarding", "kennel", "catteries"], "country": "GB", "classifiers": [{"category": "Transit Center", "type": "Transportation", "subcategory": "Passenger"}], "phone": "+44 1538 266667", "href": "http://api.simplegeo.com/1.0/features/SG_6hdVZZ71D6HPNKFAcktjiZ_53.033615_-1.950104@1300740015.json", "address": "Foxt Road, Foxt", "owner": "simplegeo", "postcode": "ST10 2HJ"}}
{"geometry": {"type": "Point", "coordinates": [-1.9501039982, 53.0336151123]}, "type": "Feature", "id": "SG_3j4nqlOqY7tAFNZwPAgb9y_53.033615_-1.950104@1300740015", "properties": {"province": "Staffordshire", "city": "Stoke-on-trent", "name": "F J & L Redfern", "tags": ["others"], "country": "GB", "classifiers": [{"category": "Farming", "type": "Manufacturing & Wholesale Goods", "subcategory": "Livestock Farm"}], "phone": "+44 1538 266355", "href": "http://api.simplegeo.com/1.0/features/SG_3j4nqlOqY7tAFNZwPAgb9y_53.033615_-1.950104@1300740015.json", "address": "Foxtwood Farm, Foxt Road, Foxt", "owner": "simplegeo", "postcode": "ST10 2HJ"}}
{"geometry": {"type": "Point", "coordinates": [-1.9851989746, 53.0008506775]}, "type": "Feature", "id": "SG_5wifadxG1w9weHSwCuzIxC_53.000851_-1.985199@1300740015", "properties": {"province": "Staffordshire", "city": "Stoke-on-trent", "name": "Froghall Passenger Service", "country": "GB", "classifiers": [{"category": "Travel", "type": "Entertainment", "subcategory": "Travel Agent"}], "phone": "+44 1538 266486", "href": "http://api.simplegeo.com/1.0/features/SG_5wifadxG1w9weHSwCuzIxC_53.000851_-1.985199@1300740015.json", "address": "Froghall Wharf, Foxt Road, Froghall", "owner": "simplegeo", "postcode": "ST10 2HJ"}}
{"geometry": {"type": "Point", "coordinates": [-1.9501039982, 53.0336151123]}, "type": "Feature", "id": "SG_7EWEuEuQl5kcxFJqD1IncC_53.033615_-1.950104@1300740015", "properties": {"province": "Staffordshire", "city": "Stoke-on-trent", "name": "D & B Electrics", "tags": ["system", "music", "public", "address"], "country": "GB", "classifiers": [{"category": "Communications", "type": "Services", "subcategory": ""}], "href": "http://api.simplegeo.com/1.0/features/SG_7EWEuEuQl5kcxFJqD1IncC_53.033615_-1.950104@1300740015.json", "address": "Highfield House, Foxt Road, Foxt", "owner": "simplegeo", "postcode": "ST10 2HJ"}}
{"geometry": {"type": "Point", "coordinates": [-0.0099529997, 52.1004142761]}, "type": "Feature", "id": "SG_434gT8Ssb6mMl8lp0E9Oxd_52.100414_-0.009953@1300740015", "properties": {"province": "Bedfordshire", "city": "Royston", "name": "Eternit U K Ltd.", "tags": ["roofing"], "country": "GB", "classifiers": [{"category": "Building & Trades", "type": "Services", "subcategory": "Construction"}], "phone": "+44 1763 260421", "href": "http://api.simplegeo.com/1.0/features/SG_434gT8Ssb6mMl8lp0E9Oxd_52.100414_-0.009953@1300740015.json", "address": "Whaddon Road, Meldreth", "owner": "simplegeo", "postcode": "SG8 5RL"}}
{"geometry": {"type": "Point", "coordinates": [-1.3055679798, 50.9662895203]}, "type": "Feature", "id": "SG_3XOj3SKEWzI6W19KMlWhSh_50.966290_-1.305568@1300740015", "properties": {"province": "Hampshire", "city": "Eastleigh", "name": "R E Tillett", "tags": ["decorator", "painter"], "country": "GB", "classifiers": [{"category": "Building & Trades", "type": "Services", "subcategory": "Construction"}], "phone": "+44 23 8069 2847", "href": "http://api.simplegeo.com/1.0/features/SG_3XOj3SKEWzI6W19KMlWhSh_50.966290_-1.305568@1300740015.json", "address": "11 Grangewood Gardens", "owner": "simplegeo", "postcode": "SO50 8ER"}}
{"geometry": {"type": "Point", "coordinates": [-1.946146965, 53.0217132568]}, "type": "Feature", "id": "SG_5IAYqQ4OXL0RyQv4thbad5_53.021713_-1.946147@1300740015", "properties": {"province": "Staffordshire", "city": "Stoke-on-trent", "name": "C F Cotton & Partners", "tags": ["others"], "country": "GB", "classifiers": [{"category": "Farming", "type": "Manufacturing & Wholesale Goods", "subcategory": "Livestock Farm"}], "phone": "+44 1538 702274", "href": "http://api.simplegeo.com/1.0/features/SG_5IAYqQ4OXL0RyQv4thbad5_53.021713_-1.946147@1300740015.json", "address": "Blakeley Farm, Blakeley, Whiston", "owner": "simplegeo", "postcode": "ST10 2HB"}}
{"geometry": {"type": "Point", "coordinates": [-1.9851989746, 53.0008506775]}, "type": "Feature", "id": "SG_27hWJQKHx3oMdgyXlVUBPd_53.000851_-1.985199@1300740015", "properties": {"province": "Staffordshire", "city": "Stoke-on-trent", "name": "The Railway Inn", "tags": ["pubs", "inn"], "country": "GB", "classifiers": [{"category": "Bars & Pubs", "type": "Food & Drink", "subcategory": ""}], "phone": "+44 1538 754782", "href": "http://api.simplegeo.com/1.0/features/SG_27hWJQKHx3oMdgyXlVUBPd_53.000851_-1.985199@1300740015.json", "address": "Froghall", "owner": "simplegeo", "postcode": "ST10 2HA"}}
{"geometry": {"type": "Point", "coordinates": [-1.9709609747, 53.046421051]}, "type": "Feature", "id": "SG_17nPQB1qT79PU8oXFRlhyr_53.046421_-1.970961@1300740015", "properties": {"province": "Staffordshire", "city": "Stoke-on-trent", "name": "C H L", "tags": ["fork", "lift", "truck"], "country": "GB", "classifiers": [{"category": "Building & Trades", "type": "Services", "subcategory": "Construction"}], "phone": "+44 1538 755500", "href": "http://api.simplegeo.com/1.0/features/SG_17nPQB1qT79PU8oXFRlhyr_53.046421_-1.970961@1300740015.json", "address": "4 Bankview, Froghall", "owner": "simplegeo", "postcode": "ST10 2HA"}}
{"geometry": {"type": "Point", "coordinates": [-1.9656339884, 53.024772644]}, "type": "Feature", "id": "SG_34FHzTWkotdifPJEpPza4Q_53.024773_-1.965634@1300740015", "properties": {"province": "Staffordshire", "city": "Stoke-on-trent", "name": "William J Jordan", "tags": ["plant", "machinery"], "country": "GB", "classifiers": [{"category": "Building & Trades", "type": "Services", "subcategory": "Equipment Rental"}, {"category": "Building & Trades", "type": "Services", "subcategory": "Construction"}], "phone": "+44 1538 750019", "href": "http://api.simplegeo.com/1.0/features/SG_34FHzTWkotdifPJEpPza4Q_53.024773_-1.965634@1300740015.json", "address": "6 Bank View Froghall Road, Froghall", "owner": "simplegeo", "postcode": "ST10 2HA"}}
{"geometry": {"type": "Point", "coordinates": [-1.9851989746, 53.0008506775]}, "type": "Feature", "id": "SG_4CwaM2oEqZLJOQEp49QLZx_53.000851_-1.985199@1300740015", "properties": {"province": "Staffordshire", "city": "Stoke-on-trent", "name": "Froghall Woodcraft Service & Supplies", "tags": ["joinery"], "country": "GB", "classifiers": [{"category": "Building & Trades", "type": "Services", "subcategory": "Construction"}], "phone": "+44 1538 750221", "href": "http://api.simplegeo.com/1.0/features/SG_4CwaM2oEqZLJOQEp49QLZx_53.000851_-1.985199@1300740015.json", "address": "Froghall Road", "owner": "simplegeo", "postcode": "ST10 2HA"}}
{"geometry": {"type": "Point", "coordinates": [-1.9656339884, 53.024772644]}, "type": "Feature", "id": "SG_3y6gxhbhIpNtkP8Pa2XGzS_53.024773_-1.965634@1300740015", "properties": {"province": "Staffordshire", "city": "Stoke-on-trent", "name": "Auto Line Motor Salvage", "tags": ["breaker", "dismantlers"], "country": "GB", "classifiers": [{"category": "Wholesale", "type": "Manufacturing & Wholesale Goods", "subcategory": "Scrap"}], "phone": "+44 1538 754814", "href": "http://api.simplegeo.com/1.0/features/SG_3y6gxhbhIpNtkP8Pa2XGzS_53.024773_-1.965634@1300740015.json", "address": "The Hawthorns, Froghall", "owner": "simplegeo", "postcode": "ST10 2HA"}}
{"geometry": {"type": "Point", "coordinates": [-1.3044010401, 50.9678077698]}, "type": "Feature", "id": "SG_6AoPLwhY27f1bH3MDoHg47_50.967808_-1.304401@1300740015", "properties": {"province": "Hampshire", "city": "Eastleigh", "name": "Expressions 2", "tags": ["unisex", "hairdresser"], "country": "GB", "classifiers": [{"category": "Personal", "type": "Services", "subcategory": "Beauty Salon"}], "phone": "+44 23 8069 3124", "href": "http://api.simplegeo.com/1.0/features/SG_6AoPLwhY27f1bH3MDoHg47_50.967808_-1.304401@1300740015.json", "address": "3 Latham Road, Fair Oak", "owner": "simplegeo", "postcode": "SO50 8EZ"}}
{"geometry": {"type": "Point", "coordinates": [-1.3062969446, 50.967414856]}, "type": "Feature", "id": "SG_3otLnnJLTcIdgMBmIsufCI_50.967415_-1.306297@1300740015", "properties": {"province": "Hampshire", "city": "Eastleigh", "name": "The Oven Door", "tags": ["baker"], "country": "GB", "classifiers": [{"category": "Food & Beverages", "type": "Retail Goods", "subcategory": "Bakery"}], "phone": "+44 23 8060 1103", "href": "http://api.simplegeo.com/1.0/features/SG_3otLnnJLTcIdgMBmIsufCI_50.967415_-1.306297@1300740015.json", "address": "1 Latham Road, Fair Oak", "owner": "simplegeo", "postcode": "SO50 8EZ"}}
{"geometry": {"type": "Point", "coordinates": [-1.3046560287, 50.9678840637]}, "type": "Feature", "id": "SG_5mxrIuSLwunaIKIrWdme04_50.967884_-1.304656@1300740015", "properties": {"province": "Hampshire", "city": "Eastleigh", "name": "Moores Fruiterers & Florists", "country": "GB", "classifiers": [{"category": "Shopping", "type": "Retail Goods", "subcategory": "Florist"}], "href": "http://api.simplegeo.com/1.0/features/SG_5mxrIuSLwunaIKIrWdme04_50.967884_-1.304656@1300740015.json", "address": "5 Latham Road, Fair Oak", "owner": "simplegeo", "postcode": "SO50 8EZ"}}
{"geometry": {"type": "Point", "coordinates": [-1.3055119514, 50.9677886963]}, "type": "Feature", "id": "SG_1RJdPhCC53IjyVQhGTVaEt_50.967789_-1.305512@1300740015", "properties": {"province": "Hampshire", "city": "Eastleigh", "name": "Crosswires Electrical", "tags": ["contractor", "electrical", "engineer"], "country": "GB", "classifiers": [{"category": "Professional", "type": "Services", "subcategory": "Engineering"}], "phone": "+44 23 8069 2896", "href": "http://api.simplegeo.com/1.0/features/SG_1RJdPhCC53IjyVQhGTVaEt_50.967789_-1.305512@1300740015.json", "address": "12 Latham Rd, Fair Oak", "owner": "simplegeo", "postcode": "SO50 8EZ"}}
{"geometry": {"type": "Point", "coordinates": [-1.9863140583, 53.0201835632]}, "type": "Feature", "id": "SG_2obpedLLfL1BgSqRtYD1be_53.020184_-1.986314@1300740015", "properties": {"province": "Staffordshire", "city": "Stoke-on-trent", "name": "M Gibson", "tags": ["others"], "country": "GB", "classifiers": [{"category": "Farming", "type": "Manufacturing & Wholesale Goods", "subcategory": "Livestock Farm"}], "href": "http://api.simplegeo.com/1.0/features/SG_2obpedLLfL1BgSqRtYD1be_53.020184_-1.986314@1300740015.json", "address": "Banks Farm, Dovedale Road, Kingsley", "owner": "simplegeo", "postcode": "ST10 2HD"}}
{"geometry": {"type": "Point", "coordinates": [-3.5871770382, 50.4337348938]}, "type": "Feature", "id": "SG_6caw7FCEnAmIyHzFAtjISt_50.433735_-3.587177@1300740015", "properties": {"province": "Devon", "city": "Paignton", "name": "Michael Shute", "tags": ["entertainer"], "country": "GB", "classifiers": [{"category": "Professional", "type": "Services", "subcategory": ""}], "href": "http://api.simplegeo.com/1.0/features/SG_6caw7FCEnAmIyHzFAtjISt_50.433735_-3.587177@1300740015.json", "address": "58 Waterleat Avenue", "owner": "simplegeo", "postcode": "TQ3 3UJ"}}
{"geometry": {"type": "Point", "coordinates": [1.3344600201, 51.9665794373]}, "type": "Feature", "id": "SG_3tvsAWbp5QUpg9BbVUeIoe_51.966579_1.334460@1300740015", "properties": {"province": "Suffolk", "city": "Felixstowe", "name": "Layden Community Centre", "tags": ["local", "centre"], "country": "GB", "classifiers": [{"category": "Community Center", "type": "Public Place", "subcategory": ""}, {"category": "Government", "type": "Public Place", "subcategory": "Office"}], "phone": "+44 1394 279724", "href": "http://api.simplegeo.com/1.0/features/SG_3tvsAWbp5QUpg9BbVUeIoe_51.966579_1.334460@1300740015.json", "address": "Langley Avenue", "owner": "simplegeo", "postcode": "IP11 2NA"}}
{"geometry": {"type": "Point", "coordinates": [1.3424650431, 51.9613685608]}, "type": "Feature", "id": "SG_3qqCs2dJsaOv7xxbDdEA1u_51.961369_1.342465@1300740015", "properties": {"province": "Suffolk", "city": "Felixstowe", "name": "W R V S", "tags": ["organisation", "voluntary", "charity"], "country": "GB", "classifiers": [{"category": "Organizations", "type": "Services", "subcategory": "Non-profit Organization"}], "phone": "+44 1394 286097", "href": "http://api.simplegeo.com/1.0/features/SG_3qqCs2dJsaOv7xxbDdEA1u_51.961369_1.342465@1300740015.json", "address": "Layden Community Centre, Langley Avenue", "owner": "simplegeo", "postcode": "IP11 2NA"}}
{"geometry": {"type": "Point", "coordinates": [1.3347209692, 51.9666175842]}, "type": "Feature", "id": "SG_5re03nHWeImkgoy48YiDO9_51.966618_1.334721@1300740015", "properties": {"province": "Suffolk", "city": "Felixstowe", "name": "Shaftesbury Housing Association", "tags": ["society", "housing"], "country": "GB", "classifiers": [{"category": "Organizations", "type": "Services", "subcategory": "Community Association"}], "phone": "+44 1394 277024", "href": "http://api.simplegeo.com/1.0/features/SG_5re03nHWeImkgoy48YiDO9_51.966618_1.334721@1300740015.json", "address": "11 Langley Close", "owner": "simplegeo", "postcode": "IP11 2NB"}}
{"geometry": {"type": "Point", "coordinates": [-0.5961139798, 51.6746559143]}, "type": "Feature", "id": "SG_5Ett1SaifSE6rcIYYMvRkO_51.674656_-0.596114@1300740015", "properties": {"province": "Buckinghamshire", "city": "Amersham", "name": "Latimer Sawmills Ltd.", "tags": ["importer", "merchants", "agent", "timber"], "country": "GB", "classifiers": [{"category": "Manufacturing", "type": "Manufacturing & Wholesale Goods", "subcategory": "Lumber"}], "phone": "+44 1494 762503", "href": "http://api.simplegeo.com/1.0/features/SG_5Ett1SaifSE6rcIYYMvRkO_51.674656_-0.596114@1300740015.json", "address": "Bell Lane, Amersham Common", "owner": "simplegeo", "postcode": "HP6 6PD"}}
{"geometry": {"type": "Point", "coordinates": [1.3299030066, 51.9660186768]}, "type": "Feature", "id": "SG_0xcVeZRHE5T7nzFDtJPlf3_51.966019_1.329903@1300740015", "properties": {"province": "Suffolk", "city": "Felixstowe", "name": "C V C Decorating Services", "tags": ["decorator", "painter"], "country": "GB", "classifiers": [{"category": "Building & Trades", "type": "Services", "subcategory": "Construction"}], "phone": "+44 1394 284520", "href": "http://api.simplegeo.com/1.0/features/SG_0xcVeZRHE5T7nzFDtJPlf3_51.966019_1.329903@1300740015.json", "address": "8 Shotley Close", "owner": "simplegeo", "postcode": "IP11 2NG"}}
{"geometry": {"type": "Point", "coordinates": [-1.946146965, 53.0217132568]}, "type": "Feature", "id": "SG_3wvVIFHbfvIzb4hH6prbxG_53.021713_-1.946147@1300740015", "properties": {"province": "Staffordshire", "city": "Stoke-on-trent", "name": "Edward Bennett", "tags": ["others"], "country": "GB", "classifiers": [{"category": "Farming", "type": "Manufacturing & Wholesale Goods", "subcategory": "Livestock Farm"}], "phone": "+44 1538 266888", "href": "http://api.simplegeo.com/1.0/features/SG_3wvVIFHbfvIzb4hH6prbxG_53.021713_-1.946147@1300740015.json", "address": "Shaw Walls Farm, Shaw Walls, Whiston", "owner": "simplegeo", "postcode": "ST10 2HS"}}
{"geometry": {"type": "Point", "coordinates": [-1.935716033, 53.0385894775]}, "type": "Feature", "id": "SG_4wsrqFMu9Fmrc83iXaJgPj_53.038589_-1.935716@1300740015", "properties": {"province": "Staffordshire", "city": "Stoke-on-trent", "name": "G E & R Lees", "tags": ["others"], "country": "GB", "classifiers": [{"category": "Farming", "type": "Manufacturing & Wholesale Goods", "subcategory": "Livestock Farm"}], "phone": "+44 1538 266240", "href": "http://api.simplegeo.com/1.0/features/SG_4wsrqFMu9Fmrc83iXaJgPj_53.038589_-1.935716@1300740015.json", "address": "Shaw Walls, Whiston", "owner": "simplegeo", "postcode": "ST10 2HS"}}
{"geometry": {"type": "Point", "coordinates": [-1.3068399429, 50.9656639099]}, "type": "Feature", "id": "SG_5ycI7vkoBBvagUb3PWt3KW_50.965664_-1.306840@1300740015", "properties": {"province": "Hampshire", "city": "Eastleigh", "name": "Robench Bouncy Castle Hire", "tags": ["inflatables", "bouncy", "castle"], "country": "GB", "classifiers": [{"category": "Shopping", "type": "Retail Goods", "subcategory": "Party Supplies"}], "href": "http://api.simplegeo.com/1.0/features/SG_5ycI7vkoBBvagUb3PWt3KW_50.965664_-1.306840@1300740015.json", "address": "12 New Road", "owner": "simplegeo", "postcode": "SO50 8EN"}}
{"geometry": {"type": "Point", "coordinates": [-1.3101530075, 50.9662246704]}, "type": "Feature", "id": "SG_7McN0M5GvG0C7QR0rnMsxn_50.966225_-1.310153@1300740015", "properties": {"province": "Hampshire", "city": "Eastleigh", "name": "Tony Smith Plumbing & Heating", "tags": ["central", "heating"], "country": "GB", "classifiers": [{"category": "Building & Trades", "type": "Services", "subcategory": "Plumbing"}], "href": "http://api.simplegeo.com/1.0/features/SG_7McN0M5GvG0C7QR0rnMsxn_50.966225_-1.310153@1300740015.json", "address": "48 New Road", "owner": "simplegeo", "postcode": "SO50 8EN"}}
{"geometry": {"type": "Point", "coordinates": [-1.3091959953, 50.9661216736]}, "type": "Feature", "id": "SG_0qIkJZIjPClG37obwfMCwf_50.966122_-1.309196@1300740015", "properties": {"province": "Hampshire", "city": "Eastleigh", "name": "Patrick L Gibby", "tags": ["gas", "engineer"], "country": "GB", "classifiers": [{"category": "Professional", "type": "Services", "subcategory": "Engineering"}], "href": "http://api.simplegeo.com/1.0/features/SG_0qIkJZIjPClG37obwfMCwf_50.966122_-1.309196@1300740015.json", "address": "36 New Road", "owner": "simplegeo", "postcode": "SO50 8EN"}}
{"geometry": {"type": "Point", "coordinates": [1.3394500017, 51.9626502991]}, "type": "Feature", "id": "SG_6dVyQKDIaHZsCxQQvP30tR_51.962650_1.339450@1300740015", "properties": {"province": "Suffolk", "city": "Felixstowe", "name": "Keith Seeley", "tags": ["glazier"], "country": "GB", "classifiers": [{"category": "Building & Trades", "type": "Services", "subcategory": "Construction"}], "phone": "+44 1394 282985", "href": "http://api.simplegeo.com/1.0/features/SG_6dVyQKDIaHZsCxQQvP30tR_51.962650_1.339450@1300740015.json", "address": "42 Mill Lane", "owner": "simplegeo", "postcode": "IP11 2NL"}}
{"geometry": {"type": "Point", "coordinates": [1.3391849995, 51.9627456665]}, "type": "Feature", "id": "SG_7MMB9dPKyzzJi44jpbgTLQ_51.962746_1.339185@1300740015", "properties": {"province": "Suffolk", "city": "Felixstowe", "name": "A P Laflin", "tags": ["builder"], "country": "GB", "classifiers": [{"category": "Building & Trades", "type": "Services", "subcategory": "Construction"}], "phone": "+44 1394 270573", "href": "http://api.simplegeo.com/1.0/features/SG_7MMB9dPKyzzJi44jpbgTLQ_51.962746_1.339185@1300740015.json", "address": "44 Mill Lane", "owner": "simplegeo", "postcode": "IP11 2NL"}}
{"geometry": {"type": "Point", "coordinates": [-1.946146965, 53.0217132568]}, "type": "Feature", "id": "SG_65ANW7iVrHy1qRVyPoOuhw_53.021713_-1.946147@1300740015", "properties": {"province": "Staffordshire", "city": "Stoke-on-trent", "name": "R & M Green & Sons", "tags": ["others"], "country": "GB", "classifiers": [{"category": "Farming", "type": "Manufacturing & Wholesale Goods", "subcategory": "Livestock Farm"}], "phone": "+44 1538 266277", "href": "http://api.simplegeo.com/1.0/features/SG_65ANW7iVrHy1qRVyPoOuhw_53.021713_-1.946147@1300740015.json", "address": "Shirley Farm, Whiston", "owner": "simplegeo", "postcode": "ST10 2HU"}}
{"geometry": {"type": "Point", "coordinates": [-1.946146965, 53.0217132568]}, "type": "Feature", "id": "SG_01JkeYn34hKQlcNzOavM2O_53.021713_-1.946147@1300740015", "properties": {"province": "Staffordshire", "city": "Stoke-on-trent", "name": "F Cope", "tags": ["mixed", "crop"], "country": "GB", "classifiers": [{"category": "Farming", "type": "Manufacturing & Wholesale Goods", "subcategory": "Farm"}], "href": "http://api.simplegeo.com/1.0/features/SG_01JkeYn34hKQlcNzOavM2O_53.021713_-1.946147@1300740015.json", "address": "Shirley Lane, Whiston", "owner": "simplegeo", "postcode": "ST10 2HU"}}
{"geometry": {"type": "Point", "coordinates": [-1.946146965, 53.0217132568]}, "type": "Feature", "id": "SG_295zpJsZpAp38CC4TKtM4i_53.021713_-1.946147@1300740015", "properties": {"province": "Staffordshire", "city": "Stoke-on-trent", "name": "Beardmore,Ian T,", "tags": ["double", "glazier", "glazing"], "country": "GB", "classifiers": [{"category": "Manufacturing", "type": "Manufacturing & Wholesale Goods", "subcategory": "Petroleum Products"}, {"category": "Building & Trades", "type": "Services", "subcategory": "Construction"}], "href": "http://api.simplegeo.com/1.0/features/SG_295zpJsZpAp38CC4TKtM4i_53.021713_-1.946147@1300740015.json", "address": "Archbury Lodge, Whiston", "owner": "simplegeo", "postcode": "ST10 2HU"}}
{"geometry": {"type": "Point", "coordinates": [-1.9427139759, 53.0214500427]}, "type": "Feature", "id": "SG_6q6ldvLZ5nIPrWoNxNSgKr_53.021450_-1.942714@1300740015", "properties": {"province": "Staffordshire", "city": "Stoke-on-trent", "name": "Moorlands Telecom", "tags": ["telecommunication"], "country": "GB", "classifiers": [{"category": "Communications", "type": "Services", "subcategory": ""}], "phone": "+44 1538 266687", "href": "http://api.simplegeo.com/1.0/features/SG_6q6ldvLZ5nIPrWoNxNSgKr_53.021450_-1.942714@1300740015.json", "address": "Black Lane, Whiston", "owner": "simplegeo", "postcode": "ST10 2HU"}}
{"geometry": {"type": "Point", "coordinates": [-2.2894790173, 53.3940582275]}, "type": "Feature", "id": "SG_3gdqiv5lR2rh5I7iGhlvro_53.394058_-2.289479@1300740015", "properties": {"province": "Cheshire", "city": "Manchester", "name": "Martin Jones", "tags": ["installers", "planner", "kitchen", "furnishers"], "country": "GB", "classifiers": [{"category": "Home & Garden", "type": "Retail Goods", "subcategory": "Home Furnishings"}, {"category": "Home & Garden", "type": "Retail Goods", "subcategory": "Building Materials"}], "phone": "+44 161 945 9122", "href": "http://api.simplegeo.com/1.0/features/SG_3gdqiv5lR2rh5I7iGhlvro_53.394058_-2.289479@1300740015.json", "address": "26 Maltby Rd", "owner": "simplegeo", "postcode": "M23 1EN"}}
{"geometry": {"type": "Point", "coordinates": [-1.8642530441, 54.8596801758]}, "type": "Feature", "id": "SG_3LMsPztNbSkZ6X9RQDcN56_54.859680_-1.864253@1300740015", "properties": {"province": "Durham", "city": "Consett", "name": "N B Transport Ltd.", "tags": ["haulage", "road"], "country": "GB", "classifiers": [{"category": "Freight", "type": "Transportation", "subcategory": ""}], "phone": "+44 1207 504467", "href": "http://api.simplegeo.com/1.0/features/SG_3LMsPztNbSkZ6X9RQDcN56_54.859680_-1.864253@1300740015.json", "address": "61 Barley Mill Road", "owner": "simplegeo", "postcode": "DH8 8JS"}}
{"geometry": {"type": "Point", "coordinates": [-2.2873399258, 53.398349762]}, "type": "Feature", "id": "SG_3rYta8C9EOpltK7x07TE5z_53.398350_-2.287340@1300740015", "properties": {"province": "Cheshire", "city": "Manchester", "name": "Manchester Inspection & Advisory Service", "tags": ["education", "agency", "authority"], "country": "GB", "classifiers": [{"category": "Government", "type": "Public Place", "subcategory": "Office"}], "phone": "+44 161 998 5256", "href": "http://api.simplegeo.com/1.0/features/SG_3rYta8C9EOpltK7x07TE5z_53.398350_-2.287340@1300740015.json", "address": "Acorn Centre, Royal Oak Primary School, Royal Oak Road", "owner": "simplegeo", "postcode": "M23 1EB"}}
{"geometry": {"type": "Point", "coordinates": [-2.2801189423, 53.3942909241]}, "type": "Feature", "id": "SG_5wcDYHMi8KTO3XLiLCiYm6_53.394291_-2.280119@1300740015", "properties": {"province": "Cheshire", "city": "Manchester", "name": "Royal Oak Sub Post Office", "tags": ["confectioner"], "country": "GB", "classifiers": [{"category": "Food & Beverages", "type": "Retail Goods", "subcategory": "Candy"}, {"category": "Government", "type": "Public Place", "subcategory": "Post Office"}], "phone": "+44 161 998 3935", "href": "http://api.simplegeo.com/1.0/features/SG_5wcDYHMi8KTO3XLiLCiYm6_53.394291_-2.280119@1300740015.json", "address": "22 Pocklington Drive", "owner": "simplegeo", "postcode": "M23 1ED"}}
{"geometry": {"type": "Point", "coordinates": [-1.8635519743, 54.8610305786]}, "type": "Feature", "id": "SG_3KehJk6ccj6r031uHbTLiG_54.861031_-1.863552@1300740015", "properties": {"province": "Durham", "city": "Consett", "name": "S A Henderson Transport", "tags": ["haulage", "road"], "country": "GB", "classifiers": [{"category": "Freight", "type": "Transportation", "subcategory": ""}], "phone": "+44 1207 591411", "href": "http://api.simplegeo.com/1.0/features/SG_3KehJk6ccj6r031uHbTLiG_54.861031_-1.863552@1300740015.json", "address": "10 Sandford Road", "owner": "simplegeo", "postcode": "DH8 8JY"}}
{"geometry": {"type": "Point", "coordinates": [-1.8634229898, 54.8618736267]}, "type": "Feature", "id": "SG_4HrqBB1TlL4DQsC3e0SUYR_54.861874_-1.863423@1300740015", "properties": {"province": "Durham", "city": "Consett", "name": "Join-It Joinery", "tags": ["joiner", "carpenter"], "country": "GB", "classifiers": [{"category": "Building & Trades", "type": "Services", "subcategory": "Construction"}], "href": "http://api.simplegeo.com/1.0/features/SG_4HrqBB1TlL4DQsC3e0SUYR_54.861874_-1.863423@1300740015.json", "address": "7 Barley Mill Crescent", "owner": "simplegeo", "postcode": "DH8 8JZ"}}
{"geometry": {"type": "Point", "coordinates": [-2.2801189423, 53.3942909241]}, "type": "Feature", "id": "SG_4SMku3xYjII1LpOnzTMepo_53.394291_-2.280119@1300740015", "properties": {"province": "Cheshire", "city": "Manchester", "name": "Dave's Crop Shop", "tags": ["unisex", "hairdresser"], "country": "GB", "classifiers": [{"category": "Personal", "type": "Services", "subcategory": "Beauty Salon"}, {"category": "Personal", "type": "Services", "subcategory": "Barber"}], "phone": "+44 161 946 0036", "href": "http://api.simplegeo.com/1.0/features/SG_4SMku3xYjII1LpOnzTMepo_53.394291_-2.280119@1300740015.json", "address": "24 Greenbrow Road", "owner": "simplegeo", "postcode": "M23 1EX"}}
{"geometry": {"type": "Point", "coordinates": [-2.2801189423, 53.3942909241]}, "type": "Feature", "id": "SG_49nzO7pqWBkWpweVF6YkNX_53.394291_-2.280119@1300740015", "properties": {"province": "Cheshire", "city": "Manchester", "name": "New Star", "tags": ["chip"], "country": "GB", "classifiers": [{"category": "Food & Beverages", "type": "Retail Goods", "subcategory": "Meat & Fish"}], "phone": "+44 161 998 3568", "href": "http://api.simplegeo.com/1.0/features/SG_49nzO7pqWBkWpweVF6YkNX_53.394291_-2.280119@1300740015.json", "address": "26 Greenbrow Road", "owner": "simplegeo", "postcode": "M23 1EX"}}
{"geometry": {"type": "Point", "coordinates": [-2.2801189423, 53.3942909241]}, "type": "Feature", "id": "SG_7SGbHWkR5unBWZYmcHGQ7M_53.394291_-2.280119@1300740015", "properties": {"province": "Cheshire", "city": "Manchester", "name": "Buffie's Sandwich Bar", "tags": ["caterer"], "country": "GB", "classifiers": [{"category": "Professional", "type": "Services", "subcategory": ""}], "phone": "+44 161 998 4900", "href": "http://api.simplegeo.com/1.0/features/SG_7SGbHWkR5unBWZYmcHGQ7M_53.394291_-2.280119@1300740015.json", "address": "12 Greenbrow Road", "owner": "simplegeo", "postcode": "M23 1EX"}}
{"geometry": {"type": "Point", "coordinates": [1.111035943, 52.3734207153]}, "type": "Feature", "id": "SG_1V5apvcYw6vCaArvLjdhZp_52.373421_1.111036@1300740015", "properties": {"province": "Norfolk", "city": "Diss", "name": "Fresh Washed Herbs", "tags": ["herb", "spice"], "country": "GB", "classifiers": [{"category": "Professional", "type": "Services", "subcategory": "Accounting & Tax Preparation"}], "phone": "+44 1379 871410", "href": "http://api.simplegeo.com/1.0/features/SG_1V5apvcYw6vCaArvLjdhZp_52.373421_1.111036@1300740015.json", "address": "Chestnut Tree Farm, The Heywood", "owner": "simplegeo", "postcode": "IP22 3SZ"}}
{"geometry": {"type": "Point", "coordinates": [-1.8359140158, 54.8609886169]}, "type": "Feature", "id": "SG_5TR3JsRXPa5EzaToAbYj6T_54.860989_-1.835914@1300740015", "properties": {"province": "Durham", "city": "Consett", "name": "Grorud Engineering Ltd.", "country": "GB", "classifiers": [{"category": "Professional", "type": "Services", "subcategory": "Engineering"}], "href": "http://api.simplegeo.com/1.0/features/SG_5TR3JsRXPa5EzaToAbYj6T_54.860989_-1.835914@1300740015.json", "address": "Castleside Industrial Estate", "owner": "simplegeo", "postcode": "DH8 8JA"}}
{"geometry": {"type": "Point", "coordinates": [-2.2878770828, 53.3927192688]}, "type": "Feature", "id": "SG_2hBFDsfg3JvceTvJcpXgfy_53.392719_-2.287877@1300740015", "properties": {"province": "Cheshire", "city": "Manchester", "name": "Altrincham Curtains & Furnishings", "tags": ["interior", "furnishers", "designer"], "country": "GB", "classifiers": [{"category": "Professional", "type": "Services", "subcategory": ""}], "phone": "+44 161 945 1693", "href": "http://api.simplegeo.com/1.0/features/SG_2hBFDsfg3JvceTvJcpXgfy_53.392719_-2.287877@1300740015.json", "address": "28 Stonebeck Rd", "owner": "simplegeo", "postcode": "M23 1EQ"}}
{"geometry": {"type": "Point", "coordinates": [-1.856744051, 54.8629608154]}, "type": "Feature", "id": "SG_4NAw5xV1ty4aBWbcIt6oaH_54.862961_-1.856744@1300740015", "properties": {"province": "Durham", "city": "Consett", "name": "G Dale", "country": "GB", "classifiers": [{"category": "Farming", "type": "Manufacturing & Wholesale Goods", "subcategory": "Dairy Farm"}], "phone": "+44 1207 505646", "href": "http://api.simplegeo.com/1.0/features/SG_4NAw5xV1ty4aBWbcIt6oaH_54.862961_-1.856744@1300740015.json", "address": "Bridgehill Farm, Pemberton Rd", "owner": "simplegeo", "postcode": "DH8 8JN"}}
{"geometry": {"type": "Point", "coordinates": [-2.2852039337, 53.3911132812]}, "type": "Feature", "id": "SG_3xY2Bp6ejt3w85HncpNFFX_53.391113_-2.285204@1300740015", "properties": {"province": "Cheshire", "city": "Manchester", "name": "Red Rose Inn", "tags": ["pubs", "inn"], "country": "GB", "classifiers": [{"category": "Bars & Pubs", "type": "Food & Drink", "subcategory": ""}], "href": "http://api.simplegeo.com/1.0/features/SG_3xY2Bp6ejt3w85HncpNFFX_53.391113_-2.285204@1300740015.json", "address": "Greenbrow Road", "owner": "simplegeo", "postcode": "M23 1EU"}}
{"geometry": {"type": "Point", "coordinates": [-1.8549189568, 54.8606262207]}, "type": "Feature", "id": "SG_497TWsh1XPqk0zs0FGTS7L_54.860626_-1.854919@1300740015", "properties": {"province": "Durham", "city": "Consett", "name": "D & DG Bryant", "country": "GB", "classifiers": [{"category": "Food & Beverages", "type": "Retail Goods", "subcategory": "Groceries & Convenience Stores"}], "phone": "+44 1207 502928", "href": "http://api.simplegeo.com/1.0/features/SG_497TWsh1XPqk0zs0FGTS7L_54.860626_-1.854919@1300740015.json", "address": "Windsor House, Pemberton Rd, Bridgehill", "owner": "simplegeo", "postcode": "DH8 8JJ"}}
{"geometry": {"type": "Point", "coordinates": [-2.5134289265, 53.4900588989]}, "type": "Feature", "id": "SG_1bWObOKt2IKYE1PLMmsX23_53.490059_-2.513429@1300740015", "properties": {"province": "Lancashire", "city": "Leigh", "name": "Brookdale Court", "tags": ["housing", "sheltered"], "country": "GB", "classifiers": [{"category": "Social Services", "type": "Services", "subcategory": "Adult Care"}], "phone": "+44 1942 679318", "href": "http://api.simplegeo.com/1.0/features/SG_1bWObOKt2IKYE1PLMmsX23_53.490059_-2.513429@1300740015.json", "address": "Pennington Rd", "owner": "simplegeo", "postcode": "WN7 3HW"}}
{"geometry": {"type": "Point", "coordinates": [-2.5144999027, 53.4897880554]}, "type": "Feature", "id": "SG_5TpOtsRZlKPUDYCbvnok6t_53.489788_-2.514500@1300740015", "properties": {"province": "Lancashire", "city": "Leigh", "name": "Envirotect Pest Control Services", "tags": ["vermin"], "country": "GB", "classifiers": [{"category": "Building & Trades", "type": "Services", "subcategory": "Pest Control"}], "phone": "+44 1942 260202", "href": "http://api.simplegeo.com/1.0/features/SG_5TpOtsRZlKPUDYCbvnok6t_53.489788_-2.514500@1300740015.json", "address": "14 Pennington Rd", "owner": "simplegeo", "postcode": "WN7 3HS"}}
{"geometry": {"type": "Point", "coordinates": [-0.7845389843, 52.0581436157]}, "type": "Feature", "id": "SG_2ZwES7TTYV02bvdtpkGx1x_52.058144_-0.784539@1300740015", "properties": {"province": "Buckinghamshire", "city": "Milton Keynes", "name": "Pepper Hill First School", "tags": ["local", "authority"], "country": "GB", "classifiers": [{"category": "Education", "type": "Public Place", "subcategory": "School"}], "phone": "+44 1908 312912", "href": "http://api.simplegeo.com/1.0/features/SG_2ZwES7TTYV02bvdtpkGx1x_52.058144_-0.784539@1300740015.json", "address": "Kingsfold, Bradville", "owner": "simplegeo", "postcode": "MK13 7BQ"}}
{"geometry": {"type": "Point", "coordinates": [-0.2729580104, 50.9321022034]}, "type": "Feature", "id": "SG_4bbXLykt4XdPwE7YQAQgsn_50.932102_-0.272958@1300740015", "properties": {"province": "West Sussex", "city": "Henfield", "name": "Martyn Lodge", "tags": ["rest"], "country": "GB", "classifiers": [{"category": "Social Services", "type": "Services", "subcategory": "Retirement Home"}], "phone": "+44 1273 492881", "href": "http://api.simplegeo.com/1.0/features/SG_4bbXLykt4XdPwE7YQAQgsn_50.932102_-0.272958@1300740015.json", "address": "Church St", "owner": "simplegeo", "postcode": "BN5 9NR"}}
{"geometry": {"type": "Point", "coordinates": [-0.2730320096, 50.9319763184]}, "type": "Feature", "id": "SG_6WrsknpixqBifQyPvkODmt_50.931976_-0.273032@1300740015", "properties": {"province": "West Sussex", "city": "Henfield", "name": "White Over & Co. Ltd.", "tags": ["surveyor", "valuer"], "country": "GB", "classifiers": [{"category": "Real Estate", "type": "Services", "subcategory": "Surveying"}], "phone": "+44 1273 494977", "href": "http://api.simplegeo.com/1.0/features/SG_6WrsknpixqBifQyPvkODmt_50.931976_-0.273032@1300740015.json", "address": "1 Church Street", "owner": "simplegeo", "postcode": "BN5 9NS"}}
{"geometry": {"type": "Point", "coordinates": [-0.2729580104, 50.9321022034]}, "type": "Feature", "id": "SG_7ajg0ysV6s4AhMaBHHpZIZ_50.932102_-0.272958@1300740015", "properties": {"province": "West Sussex", "city": "Henfield", "name": "The Royal College of Nursing of the United Kingdom", "tags": ["housing", "sheltered"], "country": "GB", "classifiers": [{"category": "Social Services", "type": "Services", "subcategory": "Adult Care"}], "phone": "+44 1273 494117", "href": "http://api.simplegeo.com/1.0/features/SG_7ajg0ysV6s4AhMaBHHpZIZ_50.932102_-0.272958@1300740015.json", "address": "Church Street", "owner": "simplegeo", "postcode": "BN5 9NP"}}
{"geometry": {"type": "Point", "coordinates": [-0.7791979909, 52.0646095276]}, "type": "Feature", "id": "SG_4aLSapcv60eeaGl5ouowMP_52.064610_-0.779198@1300740015", "properties": {"province": "Buckinghamshire", "city": "Milton Keynes", "name": "Marilyn's Emporium", "tags": ["game"], "country": "GB", "classifiers": [{"category": "Wholesale", "type": "Manufacturing & Wholesale Goods", "subcategory": "Toys & Hobbies"}], "phone": "+44 1908 226645", "href": "http://api.simplegeo.com/1.0/features/SG_4aLSapcv60eeaGl5ouowMP_52.064610_-0.779198@1300740015.json", "address": "57 Harrowden, Bradville", "owner": "simplegeo", "postcode": "MK13 7BX"}}
{"geometry": {"type": "Point", "coordinates": [-1.1656600237, 52.7456588745]}, "type": "Feature", "id": "SG_7XZMhBkru8BlJN5NzQIgXL_52.745659_-1.165660@1300740015", "properties": {"province": "Leicestershire", "city": "Loughborough", "name": "Clay, S", "tags": ["practitioners"], "country": "GB", "classifiers": [{"category": "Health Services", "type": "Services", "subcategory": "Doctor"}], "phone": "+44 1509 412232", "href": "http://api.simplegeo.com/1.0/features/SG_7XZMhBkru8BlJN5NzQIgXL_52.745659_-1.165660@1300740015.json", "address": "Quorn Medical Centre, 1 Station Rd", "owner": "simplegeo", "postcode": "LE12 8BP"}}
{"geometry": {"type": "Point", "coordinates": [-1.1428289413, 52.7544403076]}, "type": "Feature", "id": "SG_1OFlez0fVnLwDhjXHjzg2I_52.754440_-1.142829@1300740015", "properties": {"province": "Leicestershire", "city": "Loughborough", "name": "Bianca's Pizza", "tags": ["supplier", "away", "take", "pizza"], "country": "GB", "classifiers": [{"category": "Fast Food", "type": "Food & Drink", "subcategory": ""}, {"category": "Wholesale", "type": "Manufacturing & Wholesale Goods", "subcategory": "Groceries"}], "phone": "+44 1509 620363", "href": "http://api.simplegeo.com/1.0/features/SG_1OFlez0fVnLwDhjXHjzg2I_52.754440_-1.142829@1300740015.json", "address": "The Green, Station Road", "owner": "simplegeo", "postcode": "LE12 8BP"}}
{"geometry": {"type": "Point", "coordinates": [-0.2722890079, 50.9314193726]}, "type": "Feature", "id": "SG_13I4oAv6Ogpdy3VQUHKR8K_50.931419_-0.272289@1300740015", "properties": {"province": "West Sussex", "city": "Henfield", "name": "Badgerwood Training & Livery Centre", "tags": ["equestrian"], "country": "GB", "classifiers": [{"category": "Personal", "type": "Services", "subcategory": "Adult"}], "phone": "+44 1273 857369", "href": "http://api.simplegeo.com/1.0/features/SG_13I4oAv6Ogpdy3VQUHKR8K_50.931419_-0.272289@1300740015.json", "address": "Clappers Lane, Fulking", "owner": "simplegeo", "postcode": "BN5 9NJ"}}
{"geometry": {"type": "Point", "coordinates": [-0.2722890079, 50.9314193726]}, "type": "Feature", "id": "SG_6YSH3RC32XPn4UEsLntp6I_50.931419_-0.272289@1300740015", "properties": {"province": "West Sussex", "city": "Henfield", "name": "Badger Kennels & Cattery", "tags": ["boarding", "kennel", "catteries"], "country": "GB", "classifiers": [{"category": "Transit Center", "type": "Transportation", "subcategory": "Passenger"}], "phone": "+44 1273 857205", "href": "http://api.simplegeo.com/1.0/features/SG_6YSH3RC32XPn4UEsLntp6I_50.931419_-0.272289@1300740015.json", "address": "Badger Brook, Clappers Lane, Fulking", "owner": "simplegeo", "postcode": "BN5 9NJ"}}
{"geometry": {"type": "Point", "coordinates": [-2.5172159672, 53.4902992249]}, "type": "Feature", "id": "SG_4ZZCO3rCaaLmRNrsOvaXgo_53.490299_-2.517216@1300740015", "properties": {"province": "Lancashire", "city": "Leigh", "name": "Isherwoods", "tags": ["electrical"], "country": "GB", "classifiers": [{"category": "Home & Garden", "type": "Retail Goods", "subcategory": "Household Appliances"}], "phone": "+44 1942 677376", "href": "http://api.simplegeo.com/1.0/features/SG_4ZZCO3rCaaLmRNrsOvaXgo_53.490299_-2.517216@1300740015.json", "address": "11 Eton Street", "owner": "simplegeo", "postcode": "WN7 3HF"}}
{"geometry": {"type": "Point", "coordinates": [-0.2722890079, 50.9314193726]}, "type": "Feature", "id": "SG_7mvruhJTxd11x5lEGhqIMZ_50.931419_-0.272289@1300740015", "properties": {"province": "West Sussex", "city": "Henfield", "name": "Downers Vineyard", "country": "GB", "classifiers": [{"category": "Farming", "type": "Manufacturing & Wholesale Goods", "subcategory": "Vineyard"}], "phone": "+44 1273 857484", "href": "http://api.simplegeo.com/1.0/features/SG_7mvruhJTxd11x5lEGhqIMZ_50.931419_-0.272289@1300740015.json", "address": "Clappers Lane, Fulking", "owner": "simplegeo", "postcode": "BN5 9NH"}}
{"geometry": {"type": "Point", "coordinates": [-0.2237260044, 50.8937454224]}, "type": "Feature", "id": "SG_2iIf9tsDVILVDJsaXG5mEv_50.893745_-0.223726@1300740015", "properties": {"province": "West Sussex", "city": "Henfield", "name": "R & M Associates", "tags": ["marketing", "consultant"], "country": "GB", "classifiers": [{"category": "Professional", "type": "Services", "subcategory": "Management & Consulting"}], "phone": "+44 1273 857776", "href": "http://api.simplegeo.com/1.0/features/SG_2iIf9tsDVILVDJsaXG5mEv_50.893745_-0.223726@1300740015.json", "address": "Brook House, Clappers Lane, Fulking", "owner": "simplegeo", "postcode": "BN5 9NH"}}
{"geometry": {"type": "Point", "coordinates": [-0.7845389843, 52.0581436157]}, "type": "Feature", "id": "SG_0UzOYoIMHFYg49sa2mEpjK_52.058144_-0.784539@1300740015", "properties": {"province": "Buckinghamshire", "city": "Milton Keynes", "name": "Stanton Middle School", "tags": ["local", "authority"], "country": "GB", "classifiers": [{"category": "Education", "type": "Public Place", "subcategory": "School"}], "phone": "+44 1908 221242", "href": "http://api.simplegeo.com/1.0/features/SG_0UzOYoIMHFYg49sa2mEpjK_52.058144_-0.784539@1300740015.json", "address": "Fairfax, Bradville", "owner": "simplegeo", "postcode": "MK13 7BE"}}
{"geometry": {"type": "Point", "coordinates": [-0.7789459825, 52.0588531494]}, "type": "Feature", "id": "SG_2e9w7Dtg7jNhpKaAkh8ZV7_52.058853_-0.778946@1300740015", "properties": {"province": "Buckinghamshire", "city": "Milton Keynes", "name": "Norcott Arts", "tags": ["illustrator", "artist"], "country": "GB", "classifiers": [{"category": "Communications", "type": "Services", "subcategory": "Film & Video Production"}], "phone": "+44 1908 318774", "href": "http://api.simplegeo.com/1.0/features/SG_2e9w7Dtg7jNhpKaAkh8ZV7_52.058853_-0.778946@1300740015.json", "address": "16 Vauxhall, Bradville", "owner": "simplegeo", "postcode": "MK13 7BB"}}
{"geometry": {"type": "Point", "coordinates": [-0.7776899934, 52.0589294434]}, "type": "Feature", "id": "SG_2BRDHPORzfYIM94r0bo5SO_52.058929_-0.777690@1300740015", "properties": {"province": "Buckinghamshire", "city": "Milton Keynes", "name": "A K Mobile Services", "tags": ["body", "garage", "modification", "car"], "country": "GB", "classifiers": [{"category": "Retail", "type": "Services", "subcategory": "Auto Repair"}], "phone": "+44 1908 314303", "href": "http://api.simplegeo.com/1.0/features/SG_2BRDHPORzfYIM94r0bo5SO_52.058929_-0.777690@1300740015.json", "address": "46 Vauxhall, Bradville", "owner": "simplegeo", "postcode": "MK13 7BB"}}
{"geometry": {"type": "Point", "coordinates": [-0.7793310285, 52.0591011047]}, "type": "Feature", "id": "SG_5BfMATj9bKPNrmSbG4blUs_52.059101_-0.779331@1300740015", "properties": {"province": "Buckinghamshire", "city": "Milton Keynes", "name": "Able-2 Services", "tags": ["alteration"], "country": "GB", "classifiers": [{"category": "Retail", "type": "Services", "subcategory": "Laundry & Dry Cleaning"}], "href": "http://api.simplegeo.com/1.0/features/SG_5BfMATj9bKPNrmSbG4blUs_52.059101_-0.779331@1300740015.json", "address": "5 Vauxhall", "owner": "simplegeo", "postcode": "MK13 7BB"}}
{"geometry": {"type": "Point", "coordinates": [-0.7791969776, 52.0588378906]}, "type": "Feature", "id": "SG_3YEQ7aK0D7cQuPa2zTdIwS_52.058838_-0.779197@1300740015", "properties": {"province": "Buckinghamshire", "city": "Milton Keynes", "name": "Brian Davis", "country": "GB", "classifiers": [{"category": "Retail", "type": "Services", "subcategory": "Driving School"}], "phone": "+44 1908 318676", "href": "http://api.simplegeo.com/1.0/features/SG_3YEQ7aK0D7cQuPa2zTdIwS_52.058838_-0.779197@1300740015.json", "address": "10 Vauxhall", "owner": "simplegeo", "postcode": "MK13 7BB"}}
{"geometry": {"type": "Point", "coordinates": [-2.512458086, 53.4912986755]}, "type": "Feature", "id": "SG_7GTiCzNGgoJhJsiKvPh9sY_53.491299_-2.512458@1300740015", "properties": {"province": "Lancashire", "city": "Leigh", "name": "The Pennington", "tags": ["pubs", "inn"], "country": "GB", "classifiers": [{"category": "Bars & Pubs", "type": "Food & Drink", "subcategory": ""}], "phone": "+44 1942 677289", "href": "http://api.simplegeo.com/1.0/features/SG_7GTiCzNGgoJhJsiKvPh9sY_53.491299_-2.512458@1300740015.json", "address": "153 Henry Street", "owner": "simplegeo", "postcode": "WN7 3HA"}}
{"geometry": {"type": "Point", "coordinates": [-0.7775980234, 52.0602111816]}, "type": "Feature", "id": "SG_27umjBLYDOH3TSOcWf2lUP_52.060211_-0.777598@1300740015", "properties": {"province": "Buckinghamshire", "city": "Milton Keynes", "name": "Betteklean Carpets", "tags": ["cleaner", "upholstery"], "country": "GB", "classifiers": [{"category": "Home & Garden", "type": "Retail Goods", "subcategory": "Carpets & Floor Coverings"}], "phone": "+44 1908 227046", "href": "http://api.simplegeo.com/1.0/features/SG_27umjBLYDOH3TSOcWf2lUP_52.060211_-0.777598@1300740015.json", "address": "36 Cleveland", "owner": "simplegeo", "postcode": "MK13 7BA"}}
{"geometry": {"type": "Point", "coordinates": [-0.7771670222, 52.0602149963]}, "type": "Feature", "id": "SG_3pGXVzaGanonfJXvgI9afL_52.060215_-0.777167@1300740015", "properties": {"province": "Buckinghamshire", "city": "Milton Keynes", "name": "Plumbs Classic", "tags": ["loose", "cover"], "country": "GB", "classifiers": [{"category": "Home & Garden", "type": "Retail Goods", "subcategory": "Home Furnishings"}], "phone": "+44 1908 321881", "href": "http://api.simplegeo.com/1.0/features/SG_3pGXVzaGanonfJXvgI9afL_52.060215_-0.777167@1300740015.json", "address": "44 Cleveland", "owner": "simplegeo", "postcode": "MK13 7BA"}}
{"geometry": {"type": "Point", "coordinates": [-0.7845389843, 52.0581436157]}, "type": "Feature", "id": "SG_75cCTyF4F0zfRILtiDUZ9t_52.058144_-0.784539@1300740015", "properties": {"province": "Buckinghamshire", "city": "Milton Keynes", "name": "GOWER ATTRACTIONS LTD", "tags": ["overseas", "property"], "country": "GB", "classifiers": [{"category": "Banks & Credit Unions", "type": "Services", "subcategory": "Investment Brokerage"}, {"category": "Real Estate", "type": "Services", "subcategory": "Real Estate Agent"}], "phone": "+44 1908 318595", "href": "http://api.simplegeo.com/1.0/features/SG_75cCTyF4F0zfRILtiDUZ9t_52.058144_-0.784539@1300740015.json", "address": "120 Kingsfold, Bradville", "owner": "simplegeo", "postcode": "MK13 7BN"}}
{"geometry": {"type": "Point", "coordinates": [-2.5200350285, 53.4901885986]}, "type": "Feature", "id": "SG_6XvTkR7zshSBzGC9d85p4s_53.490189_-2.520035@1300740015", "properties": {"province": "Lancashire", "city": "Leigh", "name": "Ann Roger Counselling Services", "tags": ["therapist", "speech"], "country": "GB", "classifiers": [{"category": "Health Services", "type": "Services", "subcategory": "Health Practitioner"}], "phone": "+44 1942 601111", "href": "http://api.simplegeo.com/1.0/features/SG_6XvTkR7zshSBzGC9d85p4s_53.490189_-2.520035@1300740015.json", "address": "15 Sheldwich Close", "owner": "simplegeo", "postcode": "WN7 3HN"}}
{"geometry": {"type": "Point", "coordinates": [-0.8690609932, 51.4167442322]}, "type": "Feature", "id": "SG_5PtfBo5KEMrguxswdkJhQZ_51.416744_-0.869061@1300740015", "properties": {"province": "Berkshire", "city": "Wokingham", "name": "J M Rowsell", "tags": ["podiatrists", "chiropodist"], "country": "GB", "classifiers": [{"category": "Health Services", "type": "Services", "subcategory": "Podiatrist"}], "href": "http://api.simplegeo.com/1.0/features/SG_5PtfBo5KEMrguxswdkJhQZ_51.416744_-0.869061@1300740015.json", "address": "1 Zinnia Close", "owner": "simplegeo", "postcode": "RG41 3ND"}}
{"geometry": {"type": "Point", "coordinates": [-0.8686529994, 51.4166946411]}, "type": "Feature", "id": "SG_4sqjaviCIzR2HnTLp5EXFj_51.416695_-0.868653@1300740015", "properties": {"province": "Berkshire", "city": "Wokingham", "name": "B P Print & Design", "tags": ["printer"], "country": "GB", "classifiers": [{"category": "Professional", "type": "Services", "subcategory": "Printing & Photocopies"}], "href": "http://api.simplegeo.com/1.0/features/SG_4sqjaviCIzR2HnTLp5EXFj_51.416695_-0.868653@1300740015.json", "address": "7 Zinnia Close", "owner": "simplegeo", "postcode": "RG41 3ND"}}
{"geometry": {"type": "Point", "coordinates": [-2.5210390091, 53.4893913269]}, "type": "Feature", "id": "SG_6oBZFw1mBMXENKusvaD1k6_53.489391_-2.521039@1300740015", "properties": {"province": "Lancashire", "city": "Leigh", "name": "Gibbons,J M,", "tags": ["decorator", "painter"], "country": "GB", "classifiers": [{"category": "Building & Trades", "type": "Services", "subcategory": "Construction"}], "href": "http://api.simplegeo.com/1.0/features/SG_6oBZFw1mBMXENKusvaD1k6_53.489391_-2.521039@1300740015.json", "address": "Woodlands Ave, Pennington", "owner": "simplegeo", "postcode": "WN7 3HL"}}
{"geometry": {"type": "Point", "coordinates": [-0.2722890079, 50.9314193726]}, "type": "Feature", "id": "SG_71X0ku8OeDEzua4Gm41jIM_50.931419_-0.272289@1300740015", "properties": {"province": "West Sussex", "city": "Henfield", "name": "Preston Nomads Cricket Club", "country": "GB", "classifiers": [{"category": "Arena", "type": "Entertainment", "subcategory": "Sports Club"}], "phone": "+44 1273 857477", "href": "http://api.simplegeo.com/1.0/features/SG_71X0ku8OeDEzua4Gm41jIM_50.931419_-0.272289@1300740015.json", "address": "Clappers Lane, Fulking", "owner": "simplegeo", "postcode": "BN5 9ND"}}
{"geometry": {"type": "Point", "coordinates": [-0.8671349883, 51.4180908203]}, "type": "Feature", "id": "SG_1BQQY1lttxBvscs9uElF0O_51.418091_-0.867135@1300740015", "properties": {"province": "Berkshire", "city": "Wokingham", "name": "Fingertips Presentation Perfect", "tags": ["audio-visual"], "country": "GB", "classifiers": [{"category": "Communications", "type": "Services", "subcategory": ""}], "href": "http://api.simplegeo.com/1.0/features/SG_1BQQY1lttxBvscs9uElF0O_51.418091_-0.867135@1300740015.json", "address": "7 Larkspur Close", "owner": "simplegeo", "postcode": "RG41 3NA"}}
{"geometry": {"type": "Point", "coordinates": [-0.8674899936, 51.4178848267]}, "type": "Feature", "id": "SG_2HfwkuVd4bB6bdCiiSA9Hm_51.417885_-0.867490@1300740015", "properties": {"province": "Berkshire", "city": "Wokingham", "name": "Commercial Research Services", "tags": ["agency"], "country": "GB", "classifiers": [{"category": "Professional", "type": "Services", "subcategory": "Detective & Security Services"}], "href": "http://api.simplegeo.com/1.0/features/SG_2HfwkuVd4bB6bdCiiSA9Hm_51.417885_-0.867490@1300740015.json", "address": "12 Larkspur Close", "owner": "simplegeo", "postcode": "RG41 3NA"}}
{"geometry": {"type": "Point", "coordinates": [-4.170363903, 50.4512748718]}, "type": "Feature", "id": "SG_0xVsWVVbj7jmwQL7AVLkUT_50.451275_-4.170364@1300740015", "properties": {"province": "Devon", "city": "Yelverton", "name": "Bere Ferrers Social Club", "tags": ["club"], "country": "GB", "classifiers": [{"category": "Organizations", "type": "Services", "subcategory": "Membership Organization"}], "phone": "+44 1822 840922", "href": "http://api.simplegeo.com/1.0/features/SG_0xVsWVVbj7jmwQL7AVLkUT_50.451275_-4.170364@1300740015.json", "address": ", Bere Ferrers", "owner": "simplegeo", "postcode": "PL20 7JL"}}
{"geometry": {"type": "Point", "coordinates": [-4.170363903, 50.4512748718]}, "type": "Feature", "id": "SG_3n8ito1RULfB91idHjEk3B_50.451275_-4.170364@1300740015", "properties": {"province": "Devon", "city": "Yelverton", "name": "Margaret's Hairdressing", "tags": ["unisex", "hairdresser"], "country": "GB", "classifiers": [{"category": "Personal", "type": "Services", "subcategory": "Beauty Salon"}], "href": "http://api.simplegeo.com/1.0/features/SG_3n8ito1RULfB91idHjEk3B_50.451275_-4.170364@1300740015.json", "address": "Lanterna, Bere Ferrers", "owner": "simplegeo", "postcode": "PL20 7JL"}}
{"geometry": {"type": "Point", "coordinates": [-4.170363903, 50.4512748718]}, "type": "Feature", "id": "SG_7mxxh6qpGOaN6DuthwsNt0_50.451275_-4.170364@1300740015", "properties": {"province": "Devon", "city": "Yelverton", "name": "The Old Plough Inn", "tags": ["pubs", "inn"], "country": "GB", "classifiers": [{"category": "Bars & Pubs", "type": "Food & Drink", "subcategory": ""}], "phone": "+44 1822 840358", "href": "http://api.simplegeo.com/1.0/features/SG_7mxxh6qpGOaN6DuthwsNt0_50.451275_-4.170364@1300740015.json", "address": ", Bere Ferrers Yelverton", "owner": "simplegeo", "postcode": "PL20 7JL"}}
{"geometry": {"type": "Point", "coordinates": [-4.170363903, 50.4512748718]}, "type": "Feature", "id": "SG_3Dq4PhNthn5tYN7CcI82cl_50.451275_-4.170364@1300740015", "properties": {"province": "Devon", "city": "Yelverton", "name": "Adeo", "tags": ["system", "software"], "country": "GB", "classifiers": [{"category": "Professional", "type": "Services", "subcategory": "Computer Services"}], "phone": "+44 1822 840002", "href": "http://api.simplegeo.com/1.0/features/SG_3Dq4PhNthn5tYN7CcI82cl_50.451275_-4.170364@1300740015.json", "address": "Orland, Bere Ferrers", "owner": "simplegeo", "postcode": "PL20 7JL"}}
{"geometry": {"type": "Point", "coordinates": [-4.170363903, 50.4512748718]}, "type": "Feature", "id": "SG_6PN6dpIjV5IxgK6Mq7VKVh_50.451275_-4.170364@1300740015", "properties": {"province": "Devon", "city": "Yelverton", "name": "Barton International Ltd.", "tags": ["consultant", "business"], "country": "GB", "classifiers": [{"category": "Professional", "type": "Services", "subcategory": "Management & Consulting"}], "phone": "+44 1822 840220", "href": "http://api.simplegeo.com/1.0/features/SG_6PN6dpIjV5IxgK6Mq7VKVh_50.451275_-4.170364@1300740015.json", "address": "Bere Barton, Bere Ferrers", "owner": "simplegeo", "postcode": "PL20 7JL"}}
{"geometry": {"type": "Point", "coordinates": [-4.170363903, 50.4512748718]}, "type": "Feature", "id": "SG_0A8jNt10kPX1ckWX356ChB_50.451275_-4.170364@1300740015", "properties": {"province": "Devon", "city": "Yelverton", "name": "Bere Ferrers Post Office & Stores", "country": "GB", "classifiers": [{"category": "Shopping", "type": "Retail Goods", "subcategory": "Department Store"}], "phone": "+44 1822 840062", "href": "http://api.simplegeo.com/1.0/features/SG_0A8jNt10kPX1ckWX356ChB_50.451275_-4.170364@1300740015.json", "address": "Bere Ferrers", "owner": "simplegeo", "postcode": "PL20 7JL"}}
{"geometry": {"type": "Point", "coordinates": [-1.7727739811, 54.6784896851]}, "type": "Feature", "id": "SG_797ZM8QK6nAxa6sKO1A5Xj_54.678490_-1.772774@1300740015", "properties": {"province": "Durham", "city": "Bishop Auckland", "name": "Witton Le Wear Primary School", "tags": ["local", "authority"], "country": "GB", "classifiers": [{"category": "Education", "type": "Public Place", "subcategory": "School"}, {"category": "Government", "type": "Public Place", "subcategory": "Office"}], "phone": "+44 1388 488350", "href": "http://api.simplegeo.com/1.0/features/SG_797ZM8QK6nAxa6sKO1A5Xj_54.678490_-1.772774@1300740015.json", "address": "St James Gardens, Witton Le Wear", "owner": "simplegeo", "postcode": "DL14 0BG"}}
{"geometry": {"type": "Point", "coordinates": [-4.1896491051, 50.4801559448]}, "type": "Feature", "id": "SG_6ajlvqyKkwwjYx6lzgDe2E_50.480156_-4.189649@1300740015", "properties": {"province": "Devon", "city": "Yelverton", "name": "Martin Sampson Channon", "tags": ["others"], "country": "GB", "classifiers": [{"category": "Farming", "type": "Manufacturing & Wholesale Goods", "subcategory": "Livestock Farm"}], "phone": "+44 1822 840343", "href": "http://api.simplegeo.com/1.0/features/SG_6ajlvqyKkwwjYx6lzgDe2E_50.480156_-4.189649@1300740015.json", "address": "Well Farm, Bere Alston", "owner": "simplegeo", "postcode": "PL20 7JD"}}
{"geometry": {"type": "Point", "coordinates": [-4.1006789207, 50.5092582703]}, "type": "Feature", "id": "SG_3iZ6CDzZMUa3RK84l7tlK2_50.509258_-4.100679@1300740015", "properties": {"province": "Devon", "city": "Yelverton", "name": "Down Farm", "country": "GB", "classifiers": [{"category": "Shopping", "type": "Retail Goods", "subcategory": "Florist"}], "phone": "+44 1822 840636", "href": "http://api.simplegeo.com/1.0/features/SG_3iZ6CDzZMUa3RK84l7tlK2_50.509258_-4.100679@1300740015.json", "address": "Down Farm", "owner": "simplegeo", "postcode": "PL20 7JD"}}
{"geometry": {"type": "Point", "coordinates": [-1.6804939508, 54.650100708]}, "type": "Feature", "id": "SG_0Iw9lXrn7uyQ4b8wCfcjou_54.650101_-1.680494@1300740015", "properties": {"province": "Durham", "city": "Bishop Auckland", "name": "Allan,Brian,", "country": "GB", "classifiers": [{"category": "Travel", "type": "Entertainment", "subcategory": "Hotels & Motels"}], "href": "http://api.simplegeo.com/1.0/features/SG_0Iw9lXrn7uyQ4b8wCfcjou_54.650101_-1.680494@1300740015.json", "address": "West End, Witton-le-wear", "owner": "simplegeo", "postcode": "DL14 0BJ"}}
{"geometry": {"type": "Point", "coordinates": [-1.7798440456, 54.6758232117]}, "type": "Feature", "id": "SG_7ajELLu3BrAIc7KyOiH8r6_54.675823_-1.779844@1300740015", "properties": {"province": "Durham", "city": "Bishop Auckland", "name": "A G East", "tags": ["modification", "garage"], "country": "GB", "classifiers": [{"category": "Retail", "type": "Services", "subcategory": "Auto Repair"}], "phone": "+44 1388 488354", "href": "http://api.simplegeo.com/1.0/features/SG_7ajELLu3BrAIc7KyOiH8r6_54.675823_-1.779844@1300740015.json", "address": "Daleside Garage, West End, Witton Le Wear", "owner": "simplegeo", "postcode": "DL14 0BL"}}
{"geometry": {"type": "Point", "coordinates": [-4.1896491051, 50.4801559448]}, "type": "Feature", "id": "SG_0o7K3Rq9Clp07EUcJbtRyB_50.480156_-4.189649@1300740015", "properties": {"province": "Devon", "city": "Yelverton", "name": "Light Years", "tags": ["system", "music", "public", "address"], "country": "GB", "classifiers": [{"category": "Communications", "type": "Services", "subcategory": ""}], "href": "http://api.simplegeo.com/1.0/features/SG_0o7K3Rq9Clp07EUcJbtRyB_50.480156_-4.189649@1300740015.json", "address": "Bere Ferrers Road, Bere Alston", "owner": "simplegeo", "postcode": "PL20 7JA"}}
{"geometry": {"type": "Point", "coordinates": [-4.1896491051, 50.4801559448]}, "type": "Feature", "id": "SG_0652iMrjMWmwzx4TeNFVN6_50.480156_-4.189649@1300740015", "properties": {"province": "Devon", "city": "Yelverton", "name": "E Schuttkacker & Sons", "tags": ["mixed", "crop"], "country": "GB", "classifiers": [{"category": "Farming", "type": "Manufacturing & Wholesale Goods", "subcategory": "Farm"}], "href": "http://api.simplegeo.com/1.0/features/SG_0652iMrjMWmwzx4TeNFVN6_50.480156_-4.189649@1300740015.json", "address": "Battens Farm, Bere Alston", "owner": "simplegeo", "postcode": "PL20 7JB"}}
{"geometry": {"type": "Point", "coordinates": [-4.1896491051, 50.4801559448]}, "type": "Feature", "id": "SG_2nyxkJUOE4O9m3pQ4vqP6u_50.480156_-4.189649@1300740015", "properties": {"province": "Devon", "city": "Yelverton", "name": "Stannary Signs", "tags": ["writer"], "country": "GB", "classifiers": [{"category": "Manufacturing", "type": "Manufacturing & Wholesale Goods", "subcategory": "Signs"}], "href": "http://api.simplegeo.com/1.0/features/SG_2nyxkJUOE4O9m3pQ4vqP6u_50.480156_-4.189649@1300740015.json", "address": "Hole Road, Bere Alston", "owner": "simplegeo", "postcode": "PL20 7JB"}}
{"geometry": {"type": "Point", "coordinates": [-2.6476399899, 53.5010185242]}, "type": "Feature", "id": "SG_3qQZRfu9qri235ZidnNpO2_53.501019_-2.647640@1300740015", "properties": {"province": "Lancashire", "city": "Wigan", "name": "Littlers Haulage", "tags": ["haulage", "road"], "country": "GB", "classifiers": [{"category": "Freight", "type": "Transportation", "subcategory": ""}], "phone": "+44 1942 725862", "href": "http://api.simplegeo.com/1.0/features/SG_3qQZRfu9qri235ZidnNpO2_53.501019_-2.647640@1300740015.json", "address": "Brocksteads Farm, Brocksteads Rd, North Ashton", "owner": "simplegeo", "postcode": "WN4 0NR"}}
{"geometry": {"type": "Point", "coordinates": [-1.7798440456, 54.6758232117]}, "type": "Feature", "id": "SG_3o78sI7g60dVBo1CFi2BJe_54.675823_-1.779844@1300740015", "properties": {"province": "Durham", "city": "Bishop Auckland", "name": "David Michael Adamson", "tags": ["hatchery", "others"], "country": "GB", "classifiers": [{"category": "Farming", "type": "Manufacturing & Wholesale Goods", "subcategory": "Livestock Farm"}, {"category": "Farming", "type": "Manufacturing & Wholesale Goods", "subcategory": "Farm"}], "href": "http://api.simplegeo.com/1.0/features/SG_3o78sI7g60dVBo1CFi2BJe_54.675823_-1.779844@1300740015.json", "address": "The Lido, Witton Le Wear", "owner": "simplegeo", "postcode": "DL14 0BP"}}
{"geometry": {"type": "Point", "coordinates": [-1.7798440456, 54.6758232117]}, "type": "Feature", "id": "SG_3tbpK9auiRDE0EUjHCWOJI_54.675823_-1.779844@1300740015", "properties": {"province": "Durham", "city": "Bishop Auckland", "name": "J H Johnson", "tags": ["others"], "country": "GB", "classifiers": [{"category": "Farming", "type": "Manufacturing & Wholesale Goods", "subcategory": "Livestock Farm"}], "phone": "+44 1388 488796", "href": "http://api.simplegeo.com/1.0/features/SG_3tbpK9auiRDE0EUjHCWOJI_54.675823_-1.779844@1300740015.json", "address": "Marshall Grn Farm, Witton Le Wear", "owner": "simplegeo", "postcode": "DL14 0BQ"}}
{"geometry": {"type": "Point", "coordinates": [-1.1644580364, 52.7452545166]}, "type": "Feature", "id": "SG_5FWGDz0I68HUgT7vxeH1nU_52.745255_-1.164458@1300740015", "properties": {"province": "Leicestershire", "city": "Leicester", "name": "Quorn Engineering Developments", "tags": ["car", "component"], "country": "GB", "classifiers": [{"category": "Autos & Motor Vehicles", "type": "Retail Goods", "subcategory": "Auto Supplies"}, {"category": "Sports & Exercise", "type": "Entertainment", "subcategory": "Race Track"}], "phone": "+44 1509 412317", "href": "http://api.simplegeo.com/1.0/features/SG_5FWGDz0I68HUgT7vxeH1nU_52.745255_-1.164458@1300740015.json", "address": "4 Soar Road, Quorn", "owner": "simplegeo", "postcode": "LE12 8BN"}}
{"geometry": {"type": "Point", "coordinates": [-1.1762789488, 52.750202179]}, "type": "Feature", "id": "SG_6Smuo3npNY3PHYMQPV6Rg0_52.750202_-1.176279@1300740015", "properties": {"province": "Leicestershire", "city": "Loughborough", "name": "Soar House", "tags": ["residential", "care"], "country": "GB", "classifiers": [{"category": "Social Services", "type": "Services", "subcategory": "Retirement Home"}], "phone": "+44 1509 415046", "href": "http://api.simplegeo.com/1.0/features/SG_6Smuo3npNY3PHYMQPV6Rg0_52.750202_-1.176279@1300740015.json", "address": "Soar Road, Quorn", "owner": "simplegeo", "postcode": "LE12 8BN"}}
{"geometry": {"type": "Point", "coordinates": [-1.1625319719, 52.7459754944]}, "type": "Feature", "id": "SG_2LeN0nAjiSUkrE1iToEzIb_52.745975_-1.162532@1300740015", "properties": {"province": "Leicestershire", "city": "Loughborough", "name": "Christopher John Sharp", "tags": ["builder"], "country": "GB", "classifiers": [{"category": "Building & Trades", "type": "Services", "subcategory": "Construction"}], "href": "http://api.simplegeo.com/1.0/features/SG_2LeN0nAjiSUkrE1iToEzIb_52.745975_-1.162532@1300740015.json", "address": "Wharf House, 25 Soar Road", "owner": "simplegeo", "postcode": "LE12 8BN"}}
{"geometry": {"type": "Point", "coordinates": [-4.0878591537, 50.4923782349]}, "type": "Feature", "id": "SG_5Efv5sF4WSVCELkxEK6xPo_50.492378_-4.087859@1300740015", "properties": {"province": "Devon", "city": "Yelverton", "name": "Stairways Mobility", "tags": ["disability"], "country": "GB", "classifiers": [{"category": "Social Services", "type": "Services", "subcategory": ""}], "phone": "+44 1803 843411", "href": "http://api.simplegeo.com/1.0/features/SG_5Efv5sF4WSVCELkxEK6xPo_50.492378_-4.087859@1300740015.json", "address": "74 Steed Clo", "owner": "simplegeo", "postcode": "PL20 7JX"}}
{"geometry": {"type": "Point", "coordinates": [-4.170363903, 50.4512748718]}, "type": "Feature", "id": "SG_6vjJvQhvvKiSKygtIbv5nN_50.451275_-4.170364@1300740015", "properties": {"province": "Devon", "website": "http://www.harp-maker.com", "name": "Tim Hampson", "tags": ["manufacturer"], "country": "GB", "classifiers": [{"category": "Shopping", "type": "Retail Goods", "subcategory": "Musical Instruments"}, {"category": "Manufacturing", "type": "Manufacturing & Wholesale Goods", "subcategory": "Musical Instruments"}], "phone": "+44 1822 840820", "href": "http://api.simplegeo.com/1.0/features/SG_6vjJvQhvvKiSKygtIbv5nN_50.451275_-4.170364@1300740015.json", "city": "Yelverton", "address": "Tavy Court, Bere Ferrers", "owner": "simplegeo", "postcode": "PL20 7JX"}}
{"geometry": {"type": "Point", "coordinates": [-4.170363903, 50.4512748718]}, "type": "Feature", "id": "SG_5KGUvvntLvCbQxbQpfe6Tn_50.451275_-4.170364@1300740015", "properties": {"province": "Devon", "city": "Yelverton", "name": "S.W.L Panda Lifts", "tags": ["repair", "lift", "-"], "country": "GB", "classifiers": [{"category": "Building & Trades", "type": "Services", "subcategory": "Cleaning & Sanitation"}], "phone": "+44 1822 841178", "href": "http://api.simplegeo.com/1.0/features/SG_5KGUvvntLvCbQxbQpfe6Tn_50.451275_-4.170364@1300740015.json", "address": "Birlanda Vineyard, Bere Ferrers", "owner": "simplegeo", "postcode": "PL20 7JX"}}
{"geometry": {"type": "Point", "coordinates": [-4.0878591537, 50.4923782349]}, "type": "Feature", "id": "SG_7Q1C5m5dbtajYg0ynRDGma_50.492378_-4.087859@1300740015", "properties": {"province": "Devon", "city": "Yelverton", "name": "Euro Lifts Ltd.", "tags": ["lift"], "country": "GB", "classifiers": [{"category": "Wholesale", "type": "Manufacturing & Wholesale Goods", "subcategory": "Construction Materials"}], "phone": "+44 1822 841178", "href": "http://api.simplegeo.com/1.0/features/SG_7Q1C5m5dbtajYg0ynRDGma_50.492378_-4.087859@1300740015.json", "address": "Birlanda Vineyard, Bere Ferriers", "owner": "simplegeo", "postcode": "PL20 7JX"}}
{"geometry": {"type": "Point", "coordinates": [-4.0878591537, 50.4923782349]}, "type": "Feature", "id": "SG_3QL1n9fbptRCYaChxmvZcm_50.492378_-4.087859@1300740015", "properties": {"province": "Devon", "city": "Yelverton", "name": "S W L Lift & Crane Specialists", "tags": ["lift"], "country": "GB", "classifiers": [{"category": "Wholesale", "type": "Manufacturing & Wholesale Goods", "subcategory": "Construction Materials"}], "phone": "+44 1822 840405", "href": "http://api.simplegeo.com/1.0/features/SG_3QL1n9fbptRCYaChxmvZcm_50.492378_-4.087859@1300740015.json", "address": "Birlanda Vineyard", "owner": "simplegeo", "postcode": "PL20 7JY"}}
{"geometry": {"type": "Point", "coordinates": [-4.0878591537, 50.4923782349]}, "type": "Feature", "id": "SG_5abQnZJPkno6oqCgwKmCiv_50.492378_-4.087859@1300740015", "properties": {"province": "Devon", "city": "Yelverton", "name": "G J Peden", "tags": ["podiatrists", "chiropodist"], "country": "GB", "classifiers": [{"category": "Health Services", "type": "Services", "subcategory": "Podiatrist"}], "href": "http://api.simplegeo.com/1.0/features/SG_5abQnZJPkno6oqCgwKmCiv_50.492378_-4.087859@1300740015.json", "address": "Poke Logan, Liphill Quay", "owner": "simplegeo", "postcode": "PL20 7JY"}}
{"geometry": {"type": "Point", "coordinates": [-4.170363903, 50.4512748718]}, "type": "Feature", "id": "SG_2mc5hAbNlp2AouyOMA9PSm_50.451275_-4.170364@1300740015", "properties": {"province": "Devon", "city": "Yelverton", "name": "G.S.J Searle & Partners", "tags": ["others"], "country": "GB", "classifiers": [{"category": "Farming", "type": "Manufacturing & Wholesale Goods", "subcategory": "Livestock Farm"}], "phone": "+44 1822 840337", "href": "http://api.simplegeo.com/1.0/features/SG_2mc5hAbNlp2AouyOMA9PSm_50.451275_-4.170364@1300740015.json", "address": "Stone Fm, Bere Ferrers", "owner": "simplegeo", "postcode": "PL20 7JY"}}
{"geometry": {"type": "Point", "coordinates": [-4.170363903, 50.4512748718]}, "type": "Feature", "id": "SG_1I2JSbpjL15VZj9rthqrP1_50.451275_-4.170364@1300740015", "properties": {"province": "Devon", "city": "Yelverton", "name": "Diamond Abrasive Technology Ltd", "tags": ["stone", "cutting"], "country": "GB", "classifiers": [{"category": "Manufacturing", "type": "Manufacturing & Wholesale Goods", "subcategory": "Tools & Machinery"}], "href": "http://api.simplegeo.com/1.0/features/SG_1I2JSbpjL15VZj9rthqrP1_50.451275_-4.170364@1300740015.json", "address": "Stone Farm, Bere Ferrers", "owner": "simplegeo", "postcode": "PL20 7JY"}}
{"geometry": {"type": "Point", "coordinates": [-1.7777919769, 54.6771430969]}, "type": "Feature", "id": "SG_5okEZRCDaOBzE5Y41ni5Sp_54.677143_-1.777792@1300740015", "properties": {"province": "Durham", "city": "Bishop Auckland", "name": "A C Simpson & Son", "tags": ["others"], "country": "GB", "classifiers": [{"category": "Farming", "type": "Manufacturing & Wholesale Goods", "subcategory": "Livestock Farm"}], "phone": "+44 1388 488252", "href": "http://api.simplegeo.com/1.0/features/SG_5okEZRCDaOBzE5Y41ni5Sp_54.677143_-1.777792@1300740015.json", "address": "Witton-le-weir", "owner": "simplegeo", "postcode": "DL14 0BW"}}
{"geometry": {"type": "Point", "coordinates": [-4.170363903, 50.4512748718]}, "type": "Feature", "id": "SG_4aJnXWilG1YcdaQMvDS4DQ_50.451275_-4.170364@1300740015", "properties": {"province": "Devon", "city": "Yelverton", "name": "A M Stephens", "tags": ["mixed", "crop"], "country": "GB", "classifiers": [{"category": "Farming", "type": "Manufacturing & Wholesale Goods", "subcategory": "Farm"}], "phone": "+44 1822 840306", "href": "http://api.simplegeo.com/1.0/features/SG_4aJnXWilG1YcdaQMvDS4DQ_50.451275_-4.170364@1300740015.json", "address": "Newbarn Farm, Bere Ferrers", "owner": "simplegeo", "postcode": "PL20 7JU"}}
{"geometry": {"type": "Point", "coordinates": [-0.0275289994, 52.1020088196]}, "type": "Feature", "id": "SG_4ga8heMiCJZ6ZO2pUslm6l_52.102009_-0.027529@1300740015", "properties": {"province": "Bedfordshire", "city": "Royston", "name": "Whaddon Golf Centre", "tags": ["club", "course"], "country": "GB", "classifiers": [{"category": "Sports & Exercise", "type": "Entertainment", "subcategory": "Golf"}], "phone": "+44 1223 207325", "href": "http://api.simplegeo.com/1.0/features/SG_4ga8heMiCJZ6ZO2pUslm6l_52.102009_-0.027529@1300740015.json", "address": "Church Street, Whaddon", "owner": "simplegeo", "postcode": "SG8 5RX"}}
{"geometry": {"type": "Point", "coordinates": [-4.170363903, 50.4512748718]}, "type": "Feature", "id": "SG_0CJy4f5rPdhlqXt1wDB0Ll_50.451275_-4.170364@1300740015", "properties": {"province": "Devon", "city": "Yelverton", "name": "P A Dawe Florist", "country": "GB", "classifiers": [{"category": "Shopping", "type": "Retail Goods", "subcategory": "Florist"}], "phone": "+44 1822 840344", "href": "http://api.simplegeo.com/1.0/features/SG_0CJy4f5rPdhlqXt1wDB0Ll_50.451275_-4.170364@1300740015.json", "address": "1, Merton Villas, Bere Ferrers", "owner": "simplegeo", "postcode": "PL20 7JP"}}
{"geometry": {"type": "Point", "coordinates": [-1.6334190369, 53.6929664612]}, "type": "Feature", "id": "SG_6AswYxrekxpCtTdjtoHU2d_53.692966_-1.633419@1300740015", "properties": {"province": "West Yorkshire", "city": "Dewsbury", "name": "M B Auto Services", "tags": ["modification", "garage"], "country": "GB", "classifiers": [{"category": "Retail", "type": "Services", "subcategory": "Auto Repair"}], "href": "http://api.simplegeo.com/1.0/features/SG_6AswYxrekxpCtTdjtoHU2d_53.692966_-1.633419@1300740015.json", "address": "Eightlands Road", "owner": "simplegeo", "postcode": "WF13 2PF"}}
{"geometry": {"type": "Point", "coordinates": [-4.1003332138, 50.5052146912]}, "type": "Feature", "id": "SG_6wjtr0MtM0r6S1wrdRehDL_50.505215_-4.100333@1300740015", "properties": {"province": "Devon", "city": "Yelverton", "name": "Michael A P Barnes", "tags": ["plumber", "heating"], "country": "GB", "classifiers": [{"category": "Building & Trades", "type": "Services", "subcategory": "Plumbing"}], "phone": "+44 1822 841410", "href": "http://api.simplegeo.com/1.0/features/SG_6wjtr0MtM0r6S1wrdRehDL_50.505215_-4.100333@1300740015.json", "address": "Trewol, Station Road, Bere Ferrers", "owner": "simplegeo", "postcode": "PL20 7JS"}}
{"geometry": {"type": "Point", "coordinates": [-3.6970889568, 51.4820785522]}, "type": "Feature", "id": "SG_3xGH0KRitjbfwkUU1iQwG4_51.482079_-3.697089@1300740015", "properties": {"province": "Bridgend", "city": "Porthcawl", "name": "J M C Ryan & Son", "tags": ["roofing", "joiner", "carpenter", "contracting"], "country": "GB", "classifiers": [{"category": "Building & Trades", "type": "Services", "subcategory": "Construction"}], "phone": "+44 1656 786336", "href": "http://api.simplegeo.com/1.0/features/SG_3xGH0KRitjbfwkUU1iQwG4_51.482079_-3.697089@1300740015.json", "address": "Vintin Terrace", "owner": "simplegeo", "postcode": "CF36 5LS"}}
{"geometry": {"type": "Point", "coordinates": [-1.165413022, 52.7401657104]}, "type": "Feature", "id": "SG_1SFYtuvqVBhM5vbAvX0oPP_52.740166_-1.165413@1300740015", "properties": {"province": "Leicestershire", "city": "Loughborough", "name": "Lighting Enterprises", "tags": ["consultant", "lighting", "design"], "country": "GB", "classifiers": [{"category": "Building & Trades", "type": "Services", "subcategory": "Construction"}], "phone": "+44 1509 414040", "href": "http://api.simplegeo.com/1.0/features/SG_1SFYtuvqVBhM5vbAvX0oPP_52.740166_-1.165413@1300740015.json", "address": "35 Paddock Close, Quorn", "owner": "simplegeo", "postcode": "LE12 8BJ"}}
{"geometry": {"type": "Point", "coordinates": [-1.1390930414, 51.3505439758]}, "type": "Feature", "id": "SG_2ck02utVSbfqm28tjqndfg_51.350544_-1.139093@1300740015", "properties": {"province": "Berkshire", "city": "Tadley", "name": "M J B Transport Services", "tags": ["product", "centre"], "country": "GB", "classifiers": [{"category": "Education", "type": "Public Place", "subcategory": "Special Training"}], "phone": "+44 118 981 0146", "href": "http://api.simplegeo.com/1.0/features/SG_2ck02utVSbfqm28tjqndfg_51.350544_-1.139093@1300740015.json", "address": "12 Maple Gro", "owner": "simplegeo", "postcode": "RG26 4ND"}}
{"geometry": {"type": "Point", "coordinates": [-1.1400489807, 51.3504524231]}, "type": "Feature", "id": "SG_72sKtIgLmrM5uv7VsROKez_51.350452_-1.140049@1300740015", "properties": {"province": "Berkshire", "city": "Basingstoke", "name": "Alpha Pool Table Services", "tags": ["arcade"], "country": "GB", "classifiers": [{"category": "Recreation", "type": "Entertainment", "subcategory": "Amusement Park"}], "href": "http://api.simplegeo.com/1.0/features/SG_72sKtIgLmrM5uv7VsROKez_51.350452_-1.140049@1300740015.json", "address": "19 Maple Gro, Tadley", "owner": "simplegeo", "postcode": "RG26 4ND"}}
{"geometry": {"type": "Point", "coordinates": [1.2545729876, 52.6368713379]}, "type": "Feature", "id": "SG_3NSnRM98YLjme2SeRD9xpa_52.636871_1.254573@1300740015", "properties": {"province": "Norfolk", "city": "Norwich", "name": "G W Cullum & Son", "tags": ["coal", "smokeless"], "country": "GB", "classifiers": [{"category": "Utilities", "type": "Services", "subcategory": "Fuel Oil & Lpg"}], "phone": "+44 1603 620047", "href": "http://api.simplegeo.com/1.0/features/SG_3NSnRM98YLjme2SeRD9xpa_52.636871_1.254573@1300740015.json", "address": "35 Tollhouse Road", "owner": "simplegeo", "postcode": "NR5 8QF"}}
{"geometry": {"type": "Point", "coordinates": [1.254578948, 52.6371116638]}, "type": "Feature", "id": "SG_301hZ2digVChHkWbgj1zbk_52.637112_1.254579@1300740015", "properties": {"province": "Norfolk", "city": "Norwich", "name": "A.P. Joinery Assembly Services Ltd.", "tags": ["roofing"], "country": "GB", "classifiers": [{"category": "Building & Trades", "type": "Services", "subcategory": "Construction"}], "href": "http://api.simplegeo.com/1.0/features/SG_301hZ2digVChHkWbgj1zbk_52.637112_1.254579@1300740015.json", "address": "32a Tollhouse Road", "owner": "simplegeo", "postcode": "NR5 8QF"}}
{"geometry": {"type": "Point", "coordinates": [1.2535099983, 52.6373214722]}, "type": "Feature", "id": "SG_6incBx8t3DcA27Cz3AaT2i_52.637321_1.253510@1300740015", "properties": {"province": "Norfolk", "city": "Norwich", "name": "Culinary Supplies", "tags": ["catering"], "country": "GB", "classifiers": [{"category": "Home & Garden", "type": "Retail Goods", "subcategory": "Kitchen Supply"}], "phone": "+44 1603 762527", "href": "http://api.simplegeo.com/1.0/features/SG_6incBx8t3DcA27Cz3AaT2i_52.637321_1.253510@1300740015.json", "address": "The Loke, Dereham Rd", "owner": "simplegeo", "postcode": "NR5 8QG"}}
{"geometry": {"type": "Point", "coordinates": [1.2535099983, 52.6373214722]}, "type": "Feature", "id": "SG_0NTh0AzPEibsOloxjWkbgF_52.637321_1.253510@1300740015", "properties": {"province": "Norfolk", "city": "Norwich", "name": "Anglia Culinary Suppliers Ltd.", "tags": ["shop", "baker", "catering"], "country": "GB", "classifiers": [{"category": "Food & Beverages", "type": "Retail Goods", "subcategory": "Bakery"}, {"category": "Home & Garden", "type": "Retail Goods", "subcategory": "Kitchen Supply"}], "phone": "+44 1603 618614", "href": "http://api.simplegeo.com/1.0/features/SG_0NTh0AzPEibsOloxjWkbgF_52.637321_1.253510@1300740015.json", "address": "The Loke, Dereham Road", "owner": "simplegeo", "postcode": "NR5 8QG"}}
{"geometry": {"type": "Point", "coordinates": [1.2482180595, 52.6048240662]}, "type": "Feature", "id": "SG_1WacOlmhBExb3aVeKtg3Vc_52.604824_1.248218@1300740015", "properties": {"province": "Norfolk", "city": "Norwich", "name": "Abel Aerials", "tags": ["aerial", "television", "radio"], "country": "GB", "classifiers": [{"category": "Shopping", "type": "Retail Goods", "subcategory": "Computers & Home Electronics"}], "phone": "+44 1603 620127", "href": "http://api.simplegeo.com/1.0/features/SG_1WacOlmhBExb3aVeKtg3Vc_52.604824_1.248218@1300740015.json", "address": "The Loke", "owner": "simplegeo", "postcode": "NR5 8QG"}}
{"geometry": {"type": "Point", "coordinates": [1.2571079731, 52.6372833252]}, "type": "Feature", "id": "SG_36arkBQB1GaAbPNyjGC8qb_52.637283_1.257108@1300740015", "properties": {"province": "Norfolk", "website": "http://www.portakabin.com", "name": "Portakabin Ltd", "tags": ["portable"], "country": "GB", "classifiers": [{"category": "Manufacturing", "type": "Manufacturing & Wholesale Goods", "subcategory": "Buildings"}], "phone": "+44 1603 615299", "href": "http://api.simplegeo.com/1.0/features/SG_36arkBQB1GaAbPNyjGC8qb_52.637283_1.257108@1300740015.json", "city": "Norwich", "address": "370 Dereham Road", "owner": "simplegeo", "postcode": "NR5 8QE"}}
{"geometry": {"type": "Point", "coordinates": [1.2549799681, 52.6373634338]}, "type": "Feature", "id": "SG_7ZpCyxLzmoh1XmavBThNYn_52.637363_1.254980@1300740015", "properties": {"province": "Norfolk", "city": "Norwich", "name": "Springfresh", "tags": ["cleaner", "upholstery"], "country": "GB", "classifiers": [{"category": "Home & Garden", "type": "Retail Goods", "subcategory": "Carpets & Floor Coverings"}], "phone": "+44 1603 613736", "href": "http://api.simplegeo.com/1.0/features/SG_7ZpCyxLzmoh1XmavBThNYn_52.637363_1.254980@1300740015.json", "address": "386 Dereham Rd", "owner": "simplegeo", "postcode": "NR5 8QE"}}
{"geometry": {"type": "Point", "coordinates": [1.2558900118, 52.6374015808]}, "type": "Feature", "id": "SG_0GLSHpHs3mktzbWaayQoKG_52.637402_1.255890@1300740015", "properties": {"province": "Norfolk", "city": "Norwich", "name": "Kwik-Fit", "tags": ["exhaust", "absorber", "shock"], "country": "GB", "classifiers": [{"category": "Autos & Motor Vehicles", "type": "Retail Goods", "subcategory": "Auto Supplies"}], "phone": "+44 1603 766499", "href": "http://api.simplegeo.com/1.0/features/SG_0GLSHpHs3mktzbWaayQoKG_52.637402_1.255890@1300740015.json", "address": "372 Dereham Road", "owner": "simplegeo", "postcode": "NR5 8QE"}}
{"geometry": {"type": "Point", "coordinates": [1.2383010387, 52.640045166]}, "type": "Feature", "id": "SG_15Sxl87ZgZeSDbAjpDJbit_52.640045_1.238301@1300740015", "properties": {"province": "Norfolk", "city": "Norwich", "name": "The Gate House", "tags": ["pubs", "inn"], "country": "GB", "classifiers": [{"category": "Bars & Pubs", "type": "Food & Drink", "subcategory": ""}], "phone": "+44 1603 620340", "href": "http://api.simplegeo.com/1.0/features/SG_15Sxl87ZgZeSDbAjpDJbit_52.640045_1.238301@1300740015.json", "address": "Dereham Road", "owner": "simplegeo", "postcode": "NR5 8QJ"}}
{"geometry": {"type": "Point", "coordinates": [1.2535560131, 52.6378555298]}, "type": "Feature", "id": "SG_6Mw2AnFE4HYLVL4NvPVfsD_52.637856_1.253556@1300740015", "properties": {"province": "Norfolk", "city": "Norwich", "name": "B J Guyton", "tags": ["decorator", "painter"], "country": "GB", "classifiers": [{"category": "Professional", "type": "Services", "subcategory": "Art Services"}, {"category": "Building & Trades", "type": "Services", "subcategory": "Construction"}], "phone": "+44 1603 626512", "href": "http://api.simplegeo.com/1.0/features/SG_6Mw2AnFE4HYLVL4NvPVfsD_52.637856_1.253556@1300740015.json", "address": "429a Dereham Road", "owner": "simplegeo", "postcode": "NR5 8QH"}}
{"geometry": {"type": "Point", "coordinates": [1.2543970346, 52.6378288269]}, "type": "Feature", "id": "SG_5ffAr3iR8QDv6pFJSa1gux_52.637829_1.254397@1300740015", "properties": {"province": "Norfolk", "city": "Norwich", "name": "R R Bissmire", "tags": ["haulage", "road"], "country": "GB", "classifiers": [{"category": "Freight", "type": "Transportation", "subcategory": ""}], "phone": "+44 1603 624503", "href": "http://api.simplegeo.com/1.0/features/SG_5ffAr3iR8QDv6pFJSa1gux_52.637829_1.254397@1300740015.json", "address": "421 Dereham Rd", "owner": "simplegeo", "postcode": "NR5 8QH"}}
{"geometry": {"type": "Point", "coordinates": [1.2515130043, 52.6379432678]}, "type": "Feature", "id": "SG_2hSgXvUe7zBzMKzDxvKw7W_52.637943_1.251513@1300740015", "properties": {"province": "Norfolk", "city": "Norwich", "name": "J & M Track Services Ltd.", "tags": ["consultant"], "country": "GB", "classifiers": [{"category": "Professional", "type": "Services", "subcategory": "Employment Agencies"}], "phone": "+44 1603 615514", "href": "http://api.simplegeo.com/1.0/features/SG_2hSgXvUe7zBzMKzDxvKw7W_52.637943_1.251513@1300740015.json", "address": "445 Dereham Road", "owner": "simplegeo", "postcode": "NR5 8QH"}}
{"geometry": {"type": "Point", "coordinates": [1.2518800497, 52.6379241943]}, "type": "Feature", "id": "SG_4Z7haNk6jK1ihnvDS0iXF6_52.637924_1.251880@1300740015", "properties": {"province": "Norfolk", "city": "Norwich", "name": "SUNSHINE FAMILY CENTRE LTD", "tags": ["childcare"], "country": "GB", "classifiers": [{"category": "Travel", "type": "Entertainment", "subcategory": "Hotels & Motels"}, {"category": "Social Services", "type": "Services", "subcategory": "Child Care"}], "phone": "+44 1603 748798", "href": "http://api.simplegeo.com/1.0/features/SG_4Z7haNk6jK1ihnvDS0iXF6_52.637924_1.251880@1300740015.json", "address": "441 Dereham Road", "owner": "simplegeo", "postcode": "NR5 8QH"}}
{"geometry": {"type": "Point", "coordinates": [1.2498400211, 52.63804245]}, "type": "Feature", "id": "SG_2S9lCWTwkfTkKB7fzcIuHn_52.638042_1.249840@1300740015", "properties": {"province": "Norfolk", "city": "Norwich", "name": "Trade Centre Of Norwich", "tags": ["car"], "country": "GB", "classifiers": [{"category": "Autos & Motor Vehicles", "type": "Retail Goods", "subcategory": "Automobile Sales"}], "phone": "+44 1603 628285", "href": "http://api.simplegeo.com/1.0/features/SG_2S9lCWTwkfTkKB7fzcIuHn_52.638042_1.249840@1300740015.json", "address": "457 Dereham Road", "owner": "simplegeo", "postcode": "NR5 8QH"}}
{"geometry": {"type": "Point", "coordinates": [0.1088339984, 53.0313682556]}, "type": "Feature", "id": "SG_16jOESiRXKsoSNcTlNRymB_53.031368_0.108834@1300740015", "properties": {"province": "Lincolnshire", "city": "Boston", "name": "Sandra's", "tags": ["unisex", "hairdresser"], "country": "GB", "classifiers": [{"category": "Personal", "type": "Services", "subcategory": "Beauty Salon"}], "href": "http://api.simplegeo.com/1.0/features/SG_16jOESiRXKsoSNcTlNRymB_53.031368_0.108834@1300740015.json", "address": "Main Road, Old Leake", "owner": "simplegeo", "postcode": "PE22 9LH"}}
{"geometry": {"type": "Point", "coordinates": [-0.1389899999, 51.5075798035]}, "type": "Feature", "id": "SG_7VXYTcdwZ5T7KB9I3wlaae_51.507580_-0.138990@1300740015", "properties": {"province": "Hampshire", "city": "West End", "name": "Harley Street Sports Clinic", "tags": ["private"], "country": "GB", "classifiers": [{"category": "Health Services", "type": "Services", "subcategory": "Clinic"}], "phone": "+44 20 7486 2494", "href": "http://api.simplegeo.com/1.0/features/SG_7VXYTcdwZ5T7KB9I3wlaae_51.507580_-0.138990@1300740015.json", "address": "Devonshire Hospital, 29-31 Devonshire St", "owner": "simplegeo", "postcode": "W1N 1RF"}}
{"geometry": {"type": "Point", "coordinates": [-1.7408839464, 53.7988357544]}, "type": "Feature", "id": "SG_4E3cHgJ9Uw6pwp4ebB9V2Y_53.798836_-1.740884@1300740015", "properties": {"province": "West Yorkshire", "city": "Bradford", "name": "Spicer Hallfield", "country": "GB", "classifiers": [{"category": "Shopping", "type": "Retail Goods", "subcategory": "Photographic Equipment"}], "phone": "+44 1274 735786", "href": "http://api.simplegeo.com/1.0/features/SG_4E3cHgJ9Uw6pwp4ebB9V2Y_53.798836_-1.740884@1300740015.json", "address": "Rees Way, Otley Rd", "owner": "simplegeo", "postcode": "BD3 0DX"}}
{"geometry": {"type": "Point", "coordinates": [-1.7436989546, 53.8012695312]}, "type": "Feature", "id": "SG_7hMwy3rdmpSKRP8y4ia3EB_53.801270_-1.743699@1300740015", "properties": {"province": "West Yorkshire", "city": "Bradford", "name": "Northgraphic", "tags": ["printers'"], "country": "GB", "classifiers": [{"category": "Shopping", "type": "Retail Goods", "subcategory": "Stationery & Office Supplies"}], "phone": "+44 1274 732149", "href": "http://api.simplegeo.com/1.0/features/SG_7hMwy3rdmpSKRP8y4ia3EB_53.801270_-1.743699@1300740015.json", "address": "Rees Way", "owner": "simplegeo", "postcode": "BD3 0DZ"}}
{"geometry": {"type": "Point", "coordinates": [-1.7436989546, 53.8012695312]}, "type": "Feature", "id": "SG_31xNJ8HjUyfGeLJ4RDaUNF_53.801270_-1.743699@1300740015", "properties": {"province": "West Yorkshire", "city": "Bradford", "name": "Gap", "tags": ["equipment"], "country": "GB", "classifiers": [{"category": "Building & Trades", "type": "Services", "subcategory": "Construction"}], "phone": "+44 1274 394400", "href": "http://api.simplegeo.com/1.0/features/SG_31xNJ8HjUyfGeLJ4RDaUNF_53.801270_-1.743699@1300740015.json", "address": "Rees Way", "owner": "simplegeo", "postcode": "BD3 0DZ"}}
{"geometry": {"type": "Point", "coordinates": [-1.7396689653, 53.8056144714]}, "type": "Feature", "id": "SG_0jL3xnqDgm09k9go709ILd_53.805614_-1.739669@1300740015", "properties": {"province": "West Yorkshire", "city": "Bradford", "name": "L H Plastics Ltd", "tags": ["injection", "moulding"], "country": "GB", "classifiers": [{"category": "Manufacturing", "type": "Manufacturing & Wholesale Goods", "subcategory": "Rubber & Plastics"}], "phone": "+44 1274 736330", "href": "http://api.simplegeo.com/1.0/features/SG_0jL3xnqDgm09k9go709ILd_53.805614_-1.739669@1300740015.json", "address": "Allenby House, Otley Road", "owner": "simplegeo", "postcode": "BD3 0DZ"}}
{"geometry": {"type": "Point", "coordinates": [-1.0446549654, 53.8795661926]}, "type": "Feature", "id": "SG_7BaPLjy9BB3I7LPCAXqso9_53.879566_-1.044655@1300740015", "properties": {"province": "North Yorkshire", "city": "York", "name": "Escrick C of E Primary School", "tags": ["local", "authority"], "country": "GB", "classifiers": [{"category": "Education", "type": "Public Place", "subcategory": "School"}, {"category": "Government", "type": "Public Place", "subcategory": "Office"}], "phone": "+44 1904 728570", "href": "http://api.simplegeo.com/1.0/features/SG_7BaPLjy9BB3I7LPCAXqso9_53.879566_-1.044655@1300740015.json", "address": "Infant Department, 56 Main Street, Escrick", "owner": "simplegeo", "postcode": "YO19 6UN"}}
{"geometry": {"type": "Point", "coordinates": [-1.7426439524, 53.802482605]}, "type": "Feature", "id": "SG_4m0IXgJ8B3467bqDN8tFRY_53.802483_-1.742644@1300740015", "properties": {"province": "West Yorkshire", "city": "Bradford", "name": "POLLARD PARK HEALTH CENTRE", "tags": ["practitioners"], "country": "GB", "classifiers": [{"category": "Health Services", "type": "Services", "subcategory": "Doctor"}], "phone": "+44 1274 306346", "href": "http://api.simplegeo.com/1.0/features/SG_4m0IXgJ8B3467bqDN8tFRY_53.802483_-1.742644@1300740015.json", "address": "190 Otley Road", "owner": "simplegeo", "postcode": "BD3 0DQ"}}
{"geometry": {"type": "Point", "coordinates": [-1.7415449619, 53.8025894165]}, "type": "Feature", "id": "SG_3Z9I6suWtrOBj1aAOm1FY8_53.802589_-1.741545@1300740015", "properties": {"province": "West Yorkshire", "city": "Bradford", "name": "St. Augustine's C of E First School", "tags": ["local", "authority"], "country": "GB", "classifiers": [{"category": "Education", "type": "Public Place", "subcategory": "School"}, {"category": "Government", "type": "Public Place", "subcategory": "Office"}], "href": "http://api.simplegeo.com/1.0/features/SG_3Z9I6suWtrOBj1aAOm1FY8_53.802589_-1.741545@1300740015.json", "address": "St Augustines Terrace", "owner": "simplegeo", "postcode": "BD3 0DN"}}
{"geometry": {"type": "Point", "coordinates": [-1.7436000109, 53.8003387451]}, "type": "Feature", "id": "SG_7KKKUWwDyt3zCeMKvMqPld_53.800339_-1.743600@1300740015", "properties": {"province": "West Yorkshire", "city": "Bradford", "name": "Clissold Holdings Ltd.", "tags": ["clothing", "fabric", "holding", "activity"], "country": "GB", "classifiers": [{"category": "Shopping", "type": "Retail Goods", "subcategory": "Clothing, Apparel, & Fashions"}, {"category": "Professional", "type": "Services", "subcategory": "Management & Consulting"}], "phone": "+44 1274 721455", "href": "http://api.simplegeo.com/1.0/features/SG_7KKKUWwDyt3zCeMKvMqPld_53.800339_-1.743600@1300740015.json", "address": "Oldgate Mill, North Wing, Otley Road", "owner": "simplegeo", "postcode": "BD3 0DH"}}
{"geometry": {"type": "Point", "coordinates": [-1.7426439524, 53.802482605]}, "type": "Feature", "id": "SG_2lTqPCaTySxjHKaapxgkX7_53.802483_-1.742644@1300740015", "properties": {"province": "West Yorkshire", "city": "Bradford", "name": "TORBRON LTD", "tags": ["pharmacist", "dispensing", "chemist"], "country": "GB", "classifiers": [{"category": "Shopping", "type": "Retail Goods", "subcategory": "Pharmacy"}], "phone": "+44 1274 729170", "href": "http://api.simplegeo.com/1.0/features/SG_2lTqPCaTySxjHKaapxgkX7_53.802483_-1.742644@1300740015.json", "address": "208 Otley Road", "owner": "simplegeo", "postcode": "BD3 0DJ"}}
{"geometry": {"type": "Point", "coordinates": [-1.7432750463, 53.7977752686]}, "type": "Feature", "id": "SG_7ZRv7ytgIZ4CiXOXaYS9tZ_53.797775_-1.743275@1300740015", "properties": {"province": "West Yorkshire", "city": "Bradford", "name": "Azams Bargain Corner", "tags": ["shop", "second-hand"], "country": "GB", "classifiers": [{"category": "Shopping", "type": "Retail Goods", "subcategory": "Used Merchandise"}], "phone": "+44 1274 390449", "href": "http://api.simplegeo.com/1.0/features/SG_7ZRv7ytgIZ4CiXOXaYS9tZ_53.797775_-1.743275@1300740015.json", "address": "18 Otley Rd", "owner": "simplegeo", "postcode": "BD3 0DD"}}
{"geometry": {"type": "Point", "coordinates": [-1.7429610491, 53.7984428406]}, "type": "Feature", "id": "SG_1P93UQAV2TfYS9MOlc10EH_53.798443_-1.742961@1300740015", "properties": {"province": "West Yorkshire", "city": "Bradford", "name": "Patel's Newsagents", "tags": ["newsagent"], "country": "GB", "classifiers": [{"category": "Shopping", "type": "Retail Goods", "subcategory": "News"}], "href": "http://api.simplegeo.com/1.0/features/SG_1P93UQAV2TfYS9MOlc10EH_53.798443_-1.742961@1300740015.json", "address": "38 Otley Road", "owner": "simplegeo", "postcode": "BD3 0DD"}}
{"geometry": {"type": "Point", "coordinates": [-1.7429920435, 53.798374176]}, "type": "Feature", "id": "SG_7PpjZmSCNA25WQY5VNLDmG_53.798374_-1.742992@1300740015", "properties": {"province": "West Yorkshire", "city": "Bradford", "name": "Otley Road Fisheries", "tags": ["angling"], "country": "GB", "classifiers": [{"category": "Recreation", "type": "Entertainment", "subcategory": "Fishing"}], "phone": "+44 1274 307919", "href": "http://api.simplegeo.com/1.0/features/SG_7PpjZmSCNA25WQY5VNLDmG_53.798374_-1.742992@1300740015.json", "address": "36 Otley Road", "owner": "simplegeo", "postcode": "BD3 0DD"}}
{"geometry": {"type": "Point", "coordinates": [-1.7432440519, 53.7978439331]}, "type": "Feature", "id": "SG_0f12N0zahiGFeVu03FmYTg_53.797844_-1.743244@1300740015", "properties": {"province": "West Yorkshire", "city": "Bradford", "name": "Andrea Wilson", "tags": ["unisex", "hairdresser"], "country": "GB", "classifiers": [{"category": "Personal", "type": "Services", "subcategory": "Beauty Salon"}], "href": "http://api.simplegeo.com/1.0/features/SG_0f12N0zahiGFeVu03FmYTg_53.797844_-1.743244@1300740015.json", "address": "20 Otley Road", "owner": "simplegeo", "postcode": "BD3 0DD"}}
{"geometry": {"type": "Point", "coordinates": [-1.7430239916, 53.7983093262]}, "type": "Feature", "id": "SG_0lfZFHLxSbMlXopn4NmpbA_53.798309_-1.743024@1300740015", "properties": {"province": "West Yorkshire", "city": "Bradford", "name": "Wine & Dine Grocers", "country": "GB", "classifiers": [{"category": "Food & Beverages", "type": "Retail Goods", "subcategory": "Groceries & Convenience Stores"}], "phone": "+44 1274 775299", "href": "http://api.simplegeo.com/1.0/features/SG_0lfZFHLxSbMlXopn4NmpbA_53.798309_-1.743024@1300740015.json", "address": "34 Otley Road", "owner": "simplegeo", "postcode": "BD3 0DD"}}
{"geometry": {"type": "Point", "coordinates": [-1.7434949875, 53.7973098755]}, "type": "Feature", "id": "SG_6ekQIWvaznXzpLGX802E2k_53.797310_-1.743495@1300740015", "properties": {"province": "West Yorkshire", "city": "Bradford", "name": "Forshaw's Opticians", "tags": ["ophthalmic"], "country": "GB", "classifiers": [{"category": "Health Services", "type": "Services", "subcategory": "Optometrist"}, {"category": "Shopping", "type": "Retail Goods", "subcategory": "Optician"}], "phone": "+44 1274 728523", "href": "http://api.simplegeo.com/1.0/features/SG_6ekQIWvaznXzpLGX802E2k_53.797310_-1.743495@1300740015.json", "address": "4 Otley Road", "owner": "simplegeo", "postcode": "BD3 0DA"}}
{"geometry": {"type": "Point", "coordinates": [-0.3191269934, 51.29870224]}, "type": "Feature", "id": "SG_7XxaVr7XHBwl9Yl2PoRVfw_51.298702_-0.319127@1300740015", "properties": {"province": "Surrey", "city": "Leatherhead", "name": "Drain Doctor Plumbing", "tags": ["heating"], "country": "GB", "classifiers": [{"category": "Building & Trades", "type": "Services", "subcategory": "Plumbing"}], "phone": "+44 1372 360838", "href": "http://api.simplegeo.com/1.0/features/SG_7XxaVr7XHBwl9Yl2PoRVfw_51.298702_-0.319127@1300740015.json", "address": "5 Homelands", "owner": "simplegeo", "postcode": "KT22 8SU"}}
{"geometry": {"type": "Point", "coordinates": [-0.3194350004, 51.2985038757]}, "type": "Feature", "id": "SG_3p7AIsuQDPuw7Z5GZNCgSo_51.298504_-0.319435@1300740015", "properties": {"province": "Surrey", "city": "Leatherhead", "name": "Eastway Electrical Services", "tags": ["engineer", "electrician", "contractor"], "country": "GB", "classifiers": [{"category": "Professional", "type": "Services", "subcategory": "Engineering"}, {"category": "Building & Trades", "type": "Services", "subcategory": "Electrical"}], "phone": "+44 1372 372508", "href": "http://api.simplegeo.com/1.0/features/SG_3p7AIsuQDPuw7Z5GZNCgSo_51.298504_-0.319435@1300740015.json", "address": "17 Homelands", "owner": "simplegeo", "postcode": "KT22 8SU"}}
{"geometry": {"type": "Point", "coordinates": [-0.329418987, 51.2963600159]}, "type": "Feature", "id": "SG_4r0ZmEFuV2aVmVAga9maUz_51.296360_-0.329419@1300740015", "properties": {"province": "Surrey", "city": "Leatherhead", "name": "United Reformed Church", "country": "GB", "classifiers": [{"category": "Place Of Worship", "type": "Public Place", "subcategory": ""}], "phone": "+44 1372 373118", "href": "http://api.simplegeo.com/1.0/features/SG_4r0ZmEFuV2aVmVAga9maUz_51.296360_-0.329419@1300740015.json", "address": "Epdom Rd", "owner": "simplegeo", "postcode": "KT22 8ST"}}
{"geometry": {"type": "Point", "coordinates": [-0.3188509941, 51.2981491089]}, "type": "Feature", "id": "SG_58SfrdfeMwxqEYnM2sdvOj_51.298149_-0.318851@1300740015", "properties": {"province": "Surrey", "city": "Leatherhead", "name": "Oversley Nursing Home The", "tags": ["home"], "country": "GB", "classifiers": [{"category": "Health Services", "type": "Services", "subcategory": "Nursing And Care Facility"}], "phone": "+44 1372 373135", "href": "http://api.simplegeo.com/1.0/features/SG_58SfrdfeMwxqEYnM2sdvOj_51.298149_-0.318851@1300740015.json", "address": "24 Epsom Rd", "owner": "simplegeo", "postcode": "KT22 8SW"}}
{"geometry": {"type": "Point", "coordinates": [-2.6574440002, 56.7330589294]}, "type": "Feature", "id": "SG_0UtLGVjkKQxJfsfTjtrb9R_56.733059_-2.657444@1300740015", "properties": {"province": "Aberdeenshire", "city": "Brechin", "name": "The Royal British Legion Scotland", "tags": ["club"], "country": "GB", "classifiers": [{"category": "Organizations", "type": "Services", "subcategory": "Membership Organization"}], "phone": "+44 1356 622562", "href": "http://api.simplegeo.com/1.0/features/SG_0UtLGVjkKQxJfsfTjtrb9R_56.733059_-2.657444@1300740015.json", "address": "Bank Street", "owner": "simplegeo", "postcode": "DD9 6AX"}}
{"geometry": {"type": "Point", "coordinates": [-0.3173930049, 51.2984085083]}, "type": "Feature", "id": "SG_3U4mkWtbQKlP5spVUe83ot_51.298409_-0.317393@1300740015", "properties": {"province": "Surrey", "city": "Leatherhead", "name": "St. John's School", "tags": ["independent", "preparatory"], "country": "GB", "classifiers": [{"category": "Education", "type": "Public Place", "subcategory": "School"}], "phone": "+44 1372 372021", "href": "http://api.simplegeo.com/1.0/features/SG_3U4mkWtbQKlP5spVUe83ot_51.298409_-0.317393@1300740015.json", "address": "Epsom Rd", "owner": "simplegeo", "postcode": "KT22 8SP"}}
{"geometry": {"type": "Point", "coordinates": [-2.6597790718, 56.7349700928]}, "type": "Feature", "id": "SG_0iIfHEffKIhhquSzoIDJhG_56.734970_-2.659779@1300740015", "properties": {"province": "Aberdeenshire", "city": "Brechin", "name": "D F & A Collie", "tags": ["modification", "garage"], "country": "GB", "classifiers": [{"category": "Retail", "type": "Services", "subcategory": "Auto Repair"}], "phone": "+44 1356 622818", "href": "http://api.simplegeo.com/1.0/features/SG_0iIfHEffKIhhquSzoIDJhG_56.734970_-2.659779@1300740015.json", "address": "59 Clerk Street", "owner": "simplegeo", "postcode": "DD9 6AZ"}}
{"geometry": {"type": "Point", "coordinates": [-2.1257560253, 53.2556686401]}, "type": "Feature", "id": "SG_30mnxzOC9mzdRYZOM5wu0o_53.255669_-2.125756@1300740015", "properties": {"province": "Cheshire", "city": "Macclesfield", "name": "R A Rush", "tags": ["others"], "country": "GB", "classifiers": [{"category": "Farming", "type": "Manufacturing & Wholesale Goods", "subcategory": "Livestock Farm"}], "phone": "+44 1260 224358", "href": "http://api.simplegeo.com/1.0/features/SG_30mnxzOC9mzdRYZOM5wu0o_53.255669_-2.125756@1300740015.json", "address": "The Golden Cross, Pexhill Rd", "owner": "simplegeo", "postcode": "SK11 9JP"}}
{"geometry": {"type": "Point", "coordinates": [-2.2335369587, 53.2364387512]}, "type": "Feature", "id": "SG_2kRjR3Xbiua8Ez58gW04rt_53.236439_-2.233537@1300740015", "properties": {"province": "Cheshire", "city": "Macclesfield", "name": "R Kennerley", "tags": ["others"], "country": "GB", "classifiers": [{"category": "Farming", "type": "Manufacturing & Wholesale Goods", "subcategory": "Livestock Farm"}], "href": "http://api.simplegeo.com/1.0/features/SG_2kRjR3Xbiua8Ez58gW04rt_53.236439_-2.233537@1300740015.json", "address": "Siddington Hall Farm, Pexhill Road, Siddington", "owner": "simplegeo", "postcode": "SK11 9JP"}}
{"geometry": {"type": "Point", "coordinates": [-2.2335369587, 53.2364387512]}, "type": "Feature", "id": "SG_633BTSU2NTtLnlpTkW1jJ0_53.236439_-2.233537@1300740015", "properties": {"province": "Cheshire", "city": "Macclesfield", "name": "The Sloane Group", "tags": ["shopfitters"], "country": "GB", "classifiers": [{"category": "Professional", "type": "Services", "subcategory": ""}], "phone": "+44 1260 292500", "href": "http://api.simplegeo.com/1.0/features/SG_633BTSU2NTtLnlpTkW1jJ0_53.236439_-2.233537@1300740015.json", "address": "The Old Corn Mill, Congleton Rd, Siddington", "owner": "simplegeo", "postcode": "SK11 9JR"}}
{"geometry": {"type": "Point", "coordinates": [-2.2335369587, 53.2364387512]}, "type": "Feature", "id": "SG_06tQArc9uT9ogMCjV0BQJY_53.236439_-2.233537@1300740015", "properties": {"province": "Cheshire", "city": "Macclesfield", "name": "Kitchen Crafts & Furniture", "tags": ["furnishers", "ware", "planner"], "country": "GB", "classifiers": [{"category": "Home & Garden", "type": "Retail Goods", "subcategory": "Home Furnishings"}, {"category": "Home & Garden", "type": "Retail Goods", "subcategory": "Kitchen Supply"}], "href": "http://api.simplegeo.com/1.0/features/SG_06tQArc9uT9ogMCjV0BQJY_53.236439_-2.233537@1300740015.json", "address": "Unit 1 Redesmere Farm, Congleton Road, Siddington", "owner": "simplegeo", "postcode": "SK11 9JR"}}
{"geometry": {"type": "Point", "coordinates": [-2.7545280457, 56.7332725525]}, "type": "Feature", "id": "SG_39QKb54Gncx2uSTwWTZrhX_56.733273_-2.754528@1300740015", "properties": {"province": "Aberdeenshire", "city": "Brechin", "name": "Stephen V Tallett", "country": "GB", "classifiers": [{"category": "Health Services", "type": "Services", "subcategory": "Dentist"}], "phone": "+44 1356 622028", "href": "http://api.simplegeo.com/1.0/features/SG_39QKb54Gncx2uSTwWTZrhX_56.733273_-2.754528@1300740015.json", "address": "55 Southesk St", "owner": "simplegeo", "postcode": "DD9 6AW"}}
{"geometry": {"type": "Point", "coordinates": [-2.6544530392, 56.7316131592]}, "type": "Feature", "id": "SG_5BtSo5lQqBj941SfAlGm7d_56.731613_-2.654453@1300740015", "properties": {"province": "Aberdeenshire", "city": "Brechin", "name": "James S Hawke", "tags": ["decorator", "painter"], "country": "GB", "classifiers": [{"category": "Building & Trades", "type": "Services", "subcategory": "Construction"}], "phone": "+44 1356 622965", "href": "http://api.simplegeo.com/1.0/features/SG_5BtSo5lQqBj941SfAlGm7d_56.731613_-2.654453@1300740015.json", "address": "49a Southesk Street", "owner": "simplegeo", "postcode": "DD9 6AW"}}
{"geometry": {"type": "Point", "coordinates": [-0.3174099922, 51.2985420227]}, "type": "Feature", "id": "SG_7lA0WCekko3nDsCjdhOy5n_51.298542_-0.317410@1300740015", "properties": {"province": "Surrey", "city": "Leatherhead", "name": "The Ellen Elizabeth Nursing Home", "tags": ["home"], "country": "GB", "classifiers": [{"category": "Health Services", "type": "Services", "subcategory": "Nursing And Care Facility"}], "phone": "+44 1372 377368", "href": "http://api.simplegeo.com/1.0/features/SG_7lA0WCekko3nDsCjdhOy5n_51.298542_-0.317410@1300740015.json", "address": "21 Epsom Rd", "owner": "simplegeo", "postcode": "KT22 8SY"}}
{"geometry": {"type": "Point", "coordinates": [-2.6815040112, 56.7536048889]}, "type": "Feature", "id": "SG_69v2JCCZWDonwANyE71SX0_56.753605_-2.681504@1300740015", "properties": {"province": "Aberdeenshire", "city": "Brechin", "name": "Charles B Edward", "tags": ["joiner", "carpenter"], "country": "GB", "classifiers": [{"category": "Building & Trades", "type": "Services", "subcategory": "Construction"}], "href": "http://api.simplegeo.com/1.0/features/SG_69v2JCCZWDonwANyE71SX0_56.753605_-2.681504@1300740015.json", "address": "63/65 Southwest Street, Southesk", "owner": "simplegeo", "postcode": "DD9 6AQ"}}
{"geometry": {"type": "Point", "coordinates": [-2.6572759151, 56.7334823608]}, "type": "Feature", "id": "SG_14WzhZh3IRqpOsqYpsR8dE_56.733482_-2.657276@1300740015", "properties": {"province": "Aberdeenshire", "city": "Brechin", "name": "Business Computers & Communications Ltd.", "tags": ["consultant"], "country": "GB", "classifiers": [{"category": "Professional", "type": "Services", "subcategory": "Computer Services"}], "phone": "+44 1356 623456", "href": "http://api.simplegeo.com/1.0/features/SG_14WzhZh3IRqpOsqYpsR8dE_56.733482_-2.657276@1300740015.json", "address": "23 Panmure Street", "owner": "simplegeo", "postcode": "DD9 6AR"}}
{"geometry": {"type": "Point", "coordinates": [-2.6567790508, 56.7335395813]}, "type": "Feature", "id": "SG_3stM8uw0RykYje7eGdr3Aj_56.733540_-2.656779@1300740015", "properties": {"province": "Aberdeenshire", "city": "Brechin", "name": "New Friends Nursery", "tags": ["creche"], "country": "GB", "classifiers": [{"category": "Farming", "type": "Manufacturing & Wholesale Goods", "subcategory": "Nursery"}, {"category": "Social Services", "type": "Services", "subcategory": "Child Care"}], "phone": "+44 1356 626006", "href": "http://api.simplegeo.com/1.0/features/SG_3stM8uw0RykYje7eGdr3Aj_56.733540_-2.656779@1300740015.json", "address": "27a Panmure Street", "owner": "simplegeo", "postcode": "DD9 6AR"}}
{"geometry": {"type": "Point", "coordinates": [-2.6583070755, 56.7329177856]}, "type": "Feature", "id": "SG_1eTzRDl6jheJyyqpVnXwvI_56.732918_-2.658307@1300740015", "properties": {"province": "Aberdeenshire", "city": "Brechin", "name": "Allen Marshall Driving Tuition", "country": "GB", "classifiers": [{"category": "Retail", "type": "Services", "subcategory": "Driving School"}], "phone": "+44 1356 624132", "href": "http://api.simplegeo.com/1.0/features/SG_1eTzRDl6jheJyyqpVnXwvI_56.732918_-2.658307@1300740015.json", "address": "9 Panmure Street", "owner": "simplegeo", "postcode": "DD9 6AR"}}
{"geometry": {"type": "Point", "coordinates": [-2.6815040112, 56.7536048889]}, "type": "Feature", "id": "SG_3L7XbMvLtmMqnIgg9SUZFJ_56.753605_-2.681504@1300740015", "properties": {"province": "Aberdeenshire", "city": "Brechin", "name": "Angus Classic Interiors", "tags": ["soft"], "country": "GB", "classifiers": [{"category": "Home & Garden", "type": "Retail Goods", "subcategory": "Home Furnishings"}], "href": "http://api.simplegeo.com/1.0/features/SG_3L7XbMvLtmMqnIgg9SUZFJ_56.753605_-2.681504@1300740015.json", "address": "The Old Church, Panmure Street", "owner": "simplegeo", "postcode": "DD9 6AR"}}
{"geometry": {"type": "Point", "coordinates": [-2.2335369587, 53.2364387512]}, "type": "Feature", "id": "SG_71ckESYjjTfG3LWT0qvCA0_53.236439_-2.233537@1300740015", "properties": {"province": "Cheshire", "city": "Macclesfield", "name": "Lightec Sound & Light", "tags": ["firework", "stockist"], "country": "GB", "classifiers": [{"category": "Banks & Credit Unions", "type": "Services", "subcategory": "Investment Brokerage"}], "phone": "+44 1260 224570", "href": "http://api.simplegeo.com/1.0/features/SG_71ckESYjjTfG3LWT0qvCA0_53.236439_-2.233537@1300740015.json", "address": "The Coach House, Henshaw Lane, Siddington", "owner": "simplegeo", "postcode": "SK11 9JW"}}
{"geometry": {"type": "Point", "coordinates": [-2.2335369587, 53.2364387512]}, "type": "Feature", "id": "SG_44IGaoSGwEtuOlI4J4Q2DS_53.236439_-2.233537@1300740015", "properties": {"province": "Cheshire", "city": "Macclesfield", "name": "D & B Royle", "tags": ["mixed", "crop"], "country": "GB", "classifiers": [{"category": "Farming", "type": "Manufacturing & Wholesale Goods", "subcategory": "Farm"}], "phone": "+44 1260 224238", "href": "http://api.simplegeo.com/1.0/features/SG_44IGaoSGwEtuOlI4J4Q2DS_53.236439_-2.233537@1300740015.json", "address": "Henshaw Hall Farm, Henshaw Lane, Siddington", "owner": "simplegeo", "postcode": "SK11 9JW"}}
{"geometry": {"type": "Point", "coordinates": [-0.329418987, 51.2963600159]}, "type": "Feature", "id": "SG_5YX8bE9QTxGMGMsYjfXZPF_51.296360_-0.329419@1300740015", "properties": {"province": "Surrey", "city": "Leatherhead", "name": "Proud Miss Trudi", "country": "GB", "classifiers": [{"category": "Health Services", "type": "Services", "subcategory": "Dentist"}], "phone": "+44 1372 372560", "href": "http://api.simplegeo.com/1.0/features/SG_5YX8bE9QTxGMGMsYjfXZPF_51.296360_-0.329419@1300740015.json", "address": "St Johns Villa, St Johns Road", "owner": "simplegeo", "postcode": "KT22 8SE"}}
{"geometry": {"type": "Point", "coordinates": [-0.3214139938, 51.2958679199]}, "type": "Feature", "id": "SG_3OiXvoJputC5sRcOYYjt8D_51.295868_-0.321414@1300740015", "properties": {"province": "Surrey", "city": "Leatherhead", "name": "Lionheart Physiotherapy & Sports Injury Clinic", "tags": ["physiotherapist"], "country": "GB", "classifiers": [{"category": "Health Services", "type": "Services", "subcategory": "Health Practitioner"}], "phone": "+44 1372 374612", "href": "http://api.simplegeo.com/1.0/features/SG_3OiXvoJputC5sRcOYYjt8D_51.295868_-0.321414@1300740015.json", "address": "16 St Johns Road", "owner": "simplegeo", "postcode": "KT22 8SE"}}
{"geometry": {"type": "Point", "coordinates": [-0.3217079937, 51.2960739136]}, "type": "Feature", "id": "SG_3MhYEnrtIspdvNozGKbQw1_51.296074_-0.321708@1300740015", "properties": {"province": "Surrey", "city": "Leatherhead", "name": "Office Equipment Services", "tags": ["equipment"], "country": "GB", "classifiers": [{"category": "Shopping", "type": "Retail Goods", "subcategory": "Stationery & Office Supplies"}], "phone": "+44 1372 363667", "href": "http://api.simplegeo.com/1.0/features/SG_3MhYEnrtIspdvNozGKbQw1_51.296074_-0.321708@1300740015.json", "address": "12 St Johns Road", "owner": "simplegeo", "postcode": "KT22 8SE"}}
{"geometry": {"type": "Point", "coordinates": [-0.3209100068, 51.2959213257]}, "type": "Feature", "id": "SG_70F6fGdu9DSTBFQO5b4cr7_51.295921_-0.320910@1300740015", "properties": {"province": "Surrey", "city": "Leatherhead", "name": "Abard Architect", "country": "GB", "classifiers": [{"category": "Real Estate", "type": "Services", "subcategory": "Architect"}], "phone": "+44 1372 377488", "href": "http://api.simplegeo.com/1.0/features/SG_70F6fGdu9DSTBFQO5b4cr7_51.295921_-0.320910@1300740015.json", "address": "35 St Johns Road", "owner": "simplegeo", "postcode": "KT22 8SE"}}
{"geometry": {"type": "Point", "coordinates": [-0.3147880137, 51.2926483154]}, "type": "Feature", "id": "SG_193NQvMskVZWihqXIPs97p_51.292648_-0.314788@1300740015", "properties": {"province": "Surrey", "city": "Leatherhead", "name": "Surrey Heartlands Nhs Trust", "tags": ["nh", "local"], "country": "GB", "classifiers": [{"category": "Health Services", "type": "Services", "subcategory": "Clinic"}, {"category": "Government", "type": "Public Place", "subcategory": "Office"}], "phone": "+44 1372 374555", "href": "http://api.simplegeo.com/1.0/features/SG_193NQvMskVZWihqXIPs97p_51.292648_-0.314788@1300740015.json", "address": "Leatherhead Clinic, Poplar Rd", "owner": "simplegeo", "postcode": "KT22 8SD"}}
{"geometry": {"type": "Point", "coordinates": [-0.329418987, 51.2963600159]}, "type": "Feature", "id": "SG_25ERuYjUdTwdW22CJcDrQ8_51.296360_-0.329419@1300740015", "properties": {"province": "Surrey", "city": "Leatherhead", "name": "Leatherhead Hospital", "tags": ["nh"], "country": "GB", "classifiers": [{"category": "Health Services", "type": "Services", "subcategory": "Clinic"}], "phone": "+44 1372 362845", "href": "http://api.simplegeo.com/1.0/features/SG_25ERuYjUdTwdW22CJcDrQ8_51.296360_-0.329419@1300740015.json", "address": "Genito Urinary Medicine, Poplar Rd", "owner": "simplegeo", "postcode": "KT22 8SD"}}
{"geometry": {"type": "Point", "coordinates": [-0.3147880137, 51.2926483154]}, "type": "Feature", "id": "SG_4NMHuuJXcbDJ53jZxvFIK0_51.292648_-0.314788@1300740015", "properties": {"province": "Surrey", "city": "Leatherhead", "name": "GUM Clinic", "tags": ["private"], "country": "GB", "classifiers": [{"category": "Health Services", "type": "Services", "subcategory": "Clinic"}], "phone": "+44 1372 362845", "href": "http://api.simplegeo.com/1.0/features/SG_4NMHuuJXcbDJ53jZxvFIK0_51.292648_-0.314788@1300740015.json", "address": "Leatherhead Hospital, Poplar Rd", "owner": "simplegeo", "postcode": "KT22 8SD"}}
{"geometry": {"type": "Point", "coordinates": [-0.3239429891, 51.294593811]}, "type": "Feature", "id": "SG_0S5F5mt5G5j6QJVcxhurSH_51.294594_-0.323943@1300740015", "properties": {"province": "Surrey", "city": "Leatherhead", "name": "S D R Cleaning Services", "tags": ["domestic", "cleaning"], "country": "GB", "classifiers": [{"category": "Social Services", "type": "Services", "subcategory": "Adult Care"}], "phone": "+44 1372 378826", "href": "http://api.simplegeo.com/1.0/features/SG_0S5F5mt5G5j6QJVcxhurSH_51.294594_-0.323943@1300740015.json", "address": "39 Poplar Rd", "owner": "simplegeo", "postcode": "KT22 8SF"}}
{"geometry": {"type": "Point", "coordinates": [-0.3257269859, 51.2936210632]}, "type": "Feature", "id": "SG_47WOORVbrYdxzXxHOHSLUJ_51.293621_-0.325727@1300740015", "properties": {"province": "Surrey", "city": "Leatherhead", "name": "Innovate Design & Build", "tags": ["double", "glazing"], "country": "GB", "classifiers": [{"category": "Manufacturing", "type": "Manufacturing & Wholesale Goods", "subcategory": "Petroleum Products"}], "phone": "+44 1372 362828", "href": "http://api.simplegeo.com/1.0/features/SG_47WOORVbrYdxzXxHOHSLUJ_51.293621_-0.325727@1300740015.json", "address": "5b Poplar Rd", "owner": "simplegeo", "postcode": "KT22 8SF"}}
