{"geometry": {"type": "Point", "coordinates": [-149.879187, 61.215592]}, "type": "Feature", "id": "SG_5h4O7BwMqHSuNjT94X0ltD_61.215592_-149.879187@1293731153", "properties": {"province": "AK", "city": "Anchorage", "name": "Men & Women Ctr", "tags": ["mental"], "country": "US", "classifiers": [{"category": "Health Services", "type": "Services", "subcategory": "Hospital"}], "phone": "+1 907 272 4822", "href": "http://api.simplegeo.com/1.0/features/SG_5h4O7BwMqHSuNjT94X0ltD_61.215592_-149.879187@1293731153.json", "address": "600 Cordova St", "owner": "simplegeo", "postcode": "99501"}}
{"geometry": {"type": "Point", "coordinates": [-149.86541, 61.207108]}, "type": "Feature", "id": "SG_400BASBiTiWaBYOifiDSEd_61.207108_-149.865410@1293731153", "properties": {"province": "AK", "city": "Anchorage", "name": "Moondog Visions", "tags": ["vitamin"], "country": "US", "classifiers": [{"category": "Food & Beverages", "type": "Retail Goods", "subcategory": "Specialty"}], "phone": "+1 907 272 3373", "href": "http://api.simplegeo.com/1.0/features/SG_400BASBiTiWaBYOifiDSEd_61.207108_-149.865410@1293731153.json", "address": "940 Tyonek Dr", "owner": "simplegeo", "postcode": "99501"}}
{"geometry": {"type": "Point", "coordinates": [-151.288153, 60.661282]}, "type": "Feature", "id": "SG_1JGeYKhTIsi9d3jKtJ3YFg_60.661282_-151.288153@1293731153", "properties": {"province": "AK", "city": "Kenai", "name": "Polarbytes", "tags": ["repair"], "country": "US", "classifiers": [{"category": "Professional", "type": "Services", "subcategory": "Computer Services"}], "phone": "+1 907 776 7613", "href": "http://api.simplegeo.com/1.0/features/SG_1JGeYKhTIsi9d3jKtJ3YFg_60.661282_-151.288153@1293731153.json", "address": "47189 Sherwood Cir", "owner": "simplegeo", "postcode": "99611"}}
{"geometry": {"type": "Point", "coordinates": [-149.798392, 61.180905]}, "type": "Feature", "id": "SG_4BKrlFeMqVxtceqcrHv9Uu_61.180905_-149.798392@1293731153", "properties": {"province": "AK", "city": "Anchorage", "name": "Last Frontier Restaurant", "country": "US", "classifiers": [{"category": "Restaurant", "type": "Food & Drink", "subcategory": ""}], "phone": "+1 907 561 3433", "href": "http://api.simplegeo.com/1.0/features/SG_4BKrlFeMqVxtceqcrHv9Uu_61.180905_-149.798392@1293731153.json", "address": "4451 E Tudor Rd", "owner": "simplegeo", "postcode": "99507"}}
{"geometry": {"type": "Point", "coordinates": [-134.585427, 58.375872]}, "type": "Feature", "id": "SG_6BlvbU1G2Kl4v7toPI1bBo_58.375872_-134.585427@1293731153", "properties": {"province": "AK", "city": "Juneau", "name": "TAKU Reel Repair", "tags": ["tackle", "parts", "fishing"], "country": "US", "classifiers": [{"category": "Shopping", "type": "Retail Goods", "subcategory": "Bicycles & Sporting Goods"}], "phone": "+1 907 789 2448", "href": "http://api.simplegeo.com/1.0/features/SG_6BlvbU1G2Kl4v7toPI1bBo_58.375872_-134.585427@1293731153.json", "address": "9150 Skywood Ln", "owner": "simplegeo", "postcode": "99801"}}
{"geometry": {"type": "Point", "coordinates": [-149.858773, 61.105785]}, "type": "Feature", "id": "SG_6Et7aNwDrg5kQXOndbnUfl_61.105785_-149.858773@1293731153", "properties": {"province": "AK", "city": "Anchorage", "name": "Alaska Winter Gardens", "tags": ["food", "covered", "crop"], "country": "US", "classifiers": [{"category": "Farming", "type": "Manufacturing & Wholesale Goods", "subcategory": "Farm"}], "phone": "+1 907 349 3547", "href": "http://api.simplegeo.com/1.0/features/SG_6Et7aNwDrg5kQXOndbnUfl_61.105785_-149.858773@1293731153.json", "address": "12801 Old Seward Hwy", "owner": "simplegeo", "postcode": "99515"}}
{"geometry": {"type": "Point", "coordinates": [-147.86327, 64.924596]}, "type": "Feature", "id": "SG_6ht4FPF7cBwCb6eOsm0xci_64.924596_-147.863270@1293731153", "properties": {"province": "AK", "city": "Fairbanks", "name": "Goldstream Valley Bapt Chapel", "tags": ["church"], "country": "US", "classifiers": [{"category": "Organizations", "type": "Services", "subcategory": "Religious Organization"}], "phone": "+1 907 455 6880", "href": "http://api.simplegeo.com/1.0/features/SG_6ht4FPF7cBwCb6eOsm0xci_64.924596_-147.863270@1293731153.json", "address": "1483 Ballaine Rd", "owner": "simplegeo", "postcode": "99709"}}
{"geometry": {"type": "Point", "coordinates": [-149.76731, 61.216332]}, "type": "Feature", "id": "SG_4o0pIfYdM7HKqHN9L7piFr_61.216332_-149.767310@1293731153", "properties": {"province": "AK", "city": "Anchorage", "name": "Wellness Unlimited", "tags": ["therapist", "massage"], "country": "US", "classifiers": [{"category": "Personal", "type": "Services", "subcategory": ""}], "phone": "+1 907 332 4992", "href": "http://api.simplegeo.com/1.0/features/SG_4o0pIfYdM7HKqHN9L7piFr_61.216332_-149.767310@1293731153.json", "address": "6048 E 6th Ave", "owner": "simplegeo", "postcode": "99504"}}
{"geometry": {"type": "Point", "coordinates": [-147.852315, 64.808094]}, "type": "Feature", "id": "SG_76GJyRQ2FGhil3Xg0opvs9_64.808094_-147.852315@1293731153", "properties": {"province": "AK", "city": "Fairbanks", "name": "US Airway Facilities Sector", "tags": ["federal"], "country": "US", "classifiers": [{"category": "Government", "type": "Public Place", "subcategory": "Office"}], "phone": "+1 907 474 0525", "href": "http://api.simplegeo.com/1.0/features/SG_76GJyRQ2FGhil3Xg0opvs9_64.808094_-147.852315@1293731153.json", "address": "3800 University Ave S", "owner": "simplegeo", "postcode": "99709"}}
{"geometry": {"type": "Point", "coordinates": [-149.814593, 61.143367]}, "type": "Feature", "id": "SG_3DYNsudOPjIwweU479kE6k_61.143367_-149.814593@1293731153", "properties": {"province": "AK", "city": "Anchorage", "name": "Herablife Distributor", "tags": ["control", "weight"], "country": "US", "classifiers": [{"category": "Personal", "type": "Services", "subcategory": ""}], "phone": "+1 907 522 7663", "href": "http://api.simplegeo.com/1.0/features/SG_3DYNsudOPjIwweU479kE6k_61.143367_-149.814593@1293731153.json", "address": "8400 Raintree Cir", "owner": "simplegeo", "postcode": "99507"}}
{"geometry": {"type": "Point", "coordinates": [-149.487828, 61.585787]}, "type": "Feature", "id": "SG_4OHHlUsyzcuM02Ph9l6PCZ_61.585787_-149.487828@1293731153", "properties": {"province": "AK", "city": "Wasilla", "name": "Berg Roofing", "tags": ["roofing", "contractor"], "country": "US", "classifiers": [{"category": "Building & Trades", "type": "Services", "subcategory": "Construction"}], "phone": "+1 907 373 2374", "href": "http://api.simplegeo.com/1.0/features/SG_4OHHlUsyzcuM02Ph9l6PCZ_61.585787_-149.487828@1293731153.json", "address": "1660 W Vaunda Ave", "owner": "simplegeo", "postcode": "99654"}}
{"geometry": {"type": "Point", "coordinates": [-149.768351, 61.197112]}, "type": "Feature", "id": "SG_5T8dfyajmDccazMekeevJu_61.197112_-149.768351@1293731153", "properties": {"province": "AK", "city": "Anchorage", "name": "S&J Publishing Ink", "tags": ["publishing"], "country": "US", "classifiers": [{"category": "Manufacturing", "type": "Manufacturing & Wholesale Goods", "subcategory": "Printing"}], "phone": "+1 907 337 1664", "href": "http://api.simplegeo.com/1.0/features/SG_5T8dfyajmDccazMekeevJu_61.197112_-149.768351@1293731153.json", "address": "2534 Kilkenny Cir", "owner": "simplegeo", "postcode": "99504"}}
{"geometry": {"type": "Point", "coordinates": [-149.897959, 61.188411]}, "type": "Feature", "id": "SG_7ISyjugRGLuFu8wKuYL2Lf_61.188411_-149.897959@1293731153", "properties": {"province": "AK", "city": "Anchorage", "name": "Fireweed Tuxedo", "tags": ["wear", "formal"], "country": "US", "classifiers": [{"category": "Personal", "type": "Services", "subcategory": ""}], "phone": "+1 907 279 9825", "href": "http://api.simplegeo.com/1.0/features/SG_7ISyjugRGLuFu8wKuYL2Lf_61.188411_-149.897959@1293731153.json", "address": "3400 Arctic Blvd", "owner": "simplegeo", "postcode": "99503"}}
{"geometry": {"type": "Point", "coordinates": [-149.889478, 61.207115]}, "type": "Feature", "id": "SG_3dgaUfxWp6pIXvX7ytfUsq_61.207115_-149.889478@1293731153", "properties": {"province": "AK", "city": "Anchorage", "name": "Trust Consultants Inc", "tags": ["consultant", "business"], "country": "US", "classifiers": [{"category": "Professional", "type": "Services", "subcategory": "Management & Consulting"}], "phone": "+1 907 277 9312", "href": "http://api.simplegeo.com/1.0/features/SG_3dgaUfxWp6pIXvX7ytfUsq_61.207115_-149.889478@1293731153.json", "address": "1518 D St", "owner": "simplegeo", "postcode": "99501"}}
{"geometry": {"type": "Point", "coordinates": [-149.897845, 61.204975]}, "type": "Feature", "id": "SG_2mHpu7uAo5HjIjdhhuApqG_61.204975_-149.897845@1293731153", "properties": {"province": "AK", "city": "Anchorage", "name": "James D Babb Law Offices", "tags": ["attorney"], "country": "US", "classifiers": [{"category": "Professional", "type": "Services", "subcategory": "Lawyer & Legal Services"}], "phone": "+1 907 264 6648", "href": "http://api.simplegeo.com/1.0/features/SG_2mHpu7uAo5HjIjdhhuApqG_61.204975_-149.897845@1293731153.json", "address": "1818 Arctic Blvd", "owner": "simplegeo", "postcode": "99503"}}
{"geometry": {"type": "Point", "coordinates": [-151.059408, 60.485374]}, "type": "Feature", "id": "SG_0y1GFO0udp3b9ecyPfJDO9_60.485374_-151.059408@1293731153", "properties": {"province": "AK", "city": "Soldotna", "name": "Malfunction Junction Gifts", "tags": ["shop"], "country": "US", "classifiers": [{"category": "Shopping", "type": "Retail Goods", "subcategory": "Gifts & Souvenirs"}], "phone": "+1 907 262 3199", "href": "http://api.simplegeo.com/1.0/features/SG_0y1GFO0udp3b9ecyPfJDO9_60.485374_-151.059408@1293731153.json", "address": "113 Smiths Way", "owner": "simplegeo", "postcode": "99669"}}
{"geometry": {"type": "Point", "coordinates": [-149.863808, 61.118281]}, "type": "Feature", "id": "SG_6xEJVtBLK0Czw10mP4I2wx_61.118281_-149.863808@1293731153", "properties": {"province": "AK", "city": "Anchorage", "name": "Margals Associates Ceramics", "tags": ["product", "ceramic"], "country": "US", "classifiers": [{"category": "Shopping", "type": "Retail Goods", "subcategory": "Hobbies, Toys, & Games"}], "phone": "+1 907 344 8819", "href": "http://api.simplegeo.com/1.0/features/SG_6xEJVtBLK0Czw10mP4I2wx_61.118281_-149.863808@1293731153.json", "address": "11211 Old Seward Hwy", "owner": "simplegeo", "postcode": "99515"}}
{"geometry": {"type": "Point", "coordinates": [-151.392837, 59.687099]}, "type": "Feature", "id": "SG_2UKr6v3cgG0p3SkkBxu6Tu_59.687099_-151.392837@1293731153", "properties": {"province": "AK", "city": "Homer", "name": "Coastal Refrigeration Mfg", "tags": ["equipment", "refrigeration"], "country": "US", "classifiers": [{"category": "Manufacturing", "type": "Manufacturing & Wholesale Goods", "subcategory": "Tools & Machinery"}], "phone": "+1 907 235 7098", "href": "http://api.simplegeo.com/1.0/features/SG_2UKr6v3cgG0p3SkkBxu6Tu_59.687099_-151.392837@1293731153.json", "address": "40390 Grewingk Cir", "owner": "simplegeo", "postcode": "99603"}}
{"geometry": {"type": "Point", "coordinates": [-147.718066, 64.836155]}, "type": "Feature", "id": "SG_5wHXgazEEvQ64Mseq0t5IA_64.836155_-147.718066@1293731153", "properties": {"province": "AK", "city": "Fairbanks", "name": "Thrifty Liquor Store", "country": "US", "classifiers": [{"category": "Food & Beverages", "type": "Retail Goods", "subcategory": "Liquor & Beverages"}], "phone": "+1 907 452 3532", "href": "http://api.simplegeo.com/1.0/features/SG_5wHXgazEEvQ64Mseq0t5IA_64.836155_-147.718066@1293731153.json", "address": "1410 S Cushman St", "owner": "simplegeo", "postcode": "99701"}}
{"geometry": {"type": "Point", "coordinates": [-149.907309, 61.213696]}, "type": "Feature", "id": "SG_7PSg6Bzfiv1CWeGp6L1rj4_61.213696_-149.907309@1293731153", "properties": {"province": "AK", "city": "Anchorage", "name": "Una S Gandbhir", "tags": ["attorney"], "country": "US", "classifiers": [{"category": "Professional", "type": "Services", "subcategory": "Lawyer & Legal Services"}], "phone": "+1 907 258 7333", "href": "http://api.simplegeo.com/1.0/features/SG_7PSg6Bzfiv1CWeGp6L1rj4_61.213696_-149.907309@1293731153.json", "address": "1227 W 9th Ave", "owner": "simplegeo", "postcode": "99501"}}
{"geometry": {"type": "Point", "coordinates": [-149.866831, 61.144657]}, "type": "Feature", "id": "SG_7g9Ix0FNzZuj9I4EzCiLQQ_61.144657_-149.866831@1293731153", "properties": {"province": "AK", "city": "Anchorage", "name": "Alaska Power & Telephone Co", "tags": ["company"], "country": "US", "classifiers": [{"category": "Utilities", "type": "Services", "subcategory": "Telephone"}], "phone": "+1 907 563 2199", "href": "http://api.simplegeo.com/1.0/features/SG_7g9Ix0FNzZuj9I4EzCiLQQ_61.144657_-149.866831@1293731153.json", "address": "800 E Dimond Blvd", "owner": "simplegeo", "postcode": "99515"}}
{"geometry": {"type": "Point", "coordinates": [-134.4068, 58.299562]}, "type": "Feature", "id": "SG_4uOpuBTZbam8LjXjVCdO3c_58.299562_-134.406800@1293731153", "properties": {"province": "AK", "website": "www.juneausportfishing.com", "name": "Last Chance Tours", "tags": ["tours", "promoter"], "country": "US", "classifiers": [{"category": "Travel", "type": "Entertainment", "subcategory": "Travel Agent"}], "phone": "+1 907 586 1891", "href": "http://api.simplegeo.com/1.0/features/SG_4uOpuBTZbam8LjXjVCdO3c_58.299562_-134.406800@1293731153.json", "city": "Juneau", "address": "2 Marine Way", "owner": "simplegeo", "postcode": "99801"}}
{"geometry": {"type": "Point", "coordinates": [-152.406612, 57.79101]}, "type": "Feature", "id": "SG_0lltxdFEpPMvkYnwoB68Se_57.791010_-152.406612@1293731153", "properties": {"province": "AK", "city": "Kodiak", "name": "Shelikof Lodge Restaurant", "country": "US", "classifiers": [{"category": "Restaurant", "type": "Food & Drink", "subcategory": ""}], "phone": "+1 907 486 4300", "href": "http://api.simplegeo.com/1.0/features/SG_0lltxdFEpPMvkYnwoB68Se_57.791010_-152.406612@1293731153.json", "address": "211 Thorsheim St", "owner": "simplegeo", "postcode": "99615"}}
{"geometry": {"type": "Point", "coordinates": [-149.734615, 61.222362]}, "type": "Feature", "id": "SG_31RxKLfloT17grXAkOqxCj_61.222362_-149.734615@1293731153", "properties": {"province": "AK", "city": "Anchorage", "name": "AAA Muldoon Mini Storage", "tags": ["storage"], "country": "US", "classifiers": [{"category": "Freight", "type": "Transportation", "subcategory": ""}], "phone": "+1 907 338 3812", "href": "http://api.simplegeo.com/1.0/features/SG_31RxKLfloT17grXAkOqxCj_61.222362_-149.734615@1293731153.json", "address": "7801 Peck Ave", "owner": "simplegeo", "postcode": "99504"}}
{"geometry": {"type": "Point", "coordinates": [-151.527322, 59.648914]}, "type": "Feature", "id": "SG_4oHlXSkD8Myutk2GMZEypu_59.648914_-151.527322@1293731153", "properties": {"province": "AK", "city": "Homer", "name": "Beachcomber's Three", "country": "US", "classifiers": [{"category": "Restaurant", "type": "Food & Drink", "subcategory": ""}], "phone": "+1 907 235 1556", "href": "http://api.simplegeo.com/1.0/features/SG_4oHlXSkD8Myutk2GMZEypu_59.648914_-151.527322@1293731153.json", "address": "672 East Rd", "owner": "simplegeo", "postcode": "99603"}}
{"geometry": {"type": "Point", "coordinates": [-150.83832, 60.526918]}, "type": "Feature", "id": "SG_4671HqBmEOI2MR1d5vVYoN_60.526918_-150.838320@1293731153", "properties": {"province": "AK", "city": "Sterling", "name": "Riggs Enterprises", "tags": ["trucking"], "country": "US", "classifiers": [{"category": "Freight", "type": "Transportation", "subcategory": ""}], "phone": "+1 907 262 8844", "href": "http://api.simplegeo.com/1.0/features/SG_4671HqBmEOI2MR1d5vVYoN_60.526918_-150.838320@1293731153.json", "address": "37775 W Scout Lake Loop Rd", "owner": "simplegeo", "postcode": "99672"}}
{"geometry": {"type": "Point", "coordinates": [-147.80602, 64.83668]}, "type": "Feature", "id": "SG_2zfoWFV9M6YC6WLPeNeK8h_64.836680_-147.806020@1293731153", "properties": {"province": "AK", "city": "Fairbanks", "name": "Ron's Liquor & Convenience", "country": "US", "classifiers": [{"category": "Food & Beverages", "type": "Retail Goods", "subcategory": "Liquor & Beverages"}], "phone": "+1 907 455 8206", "href": "http://api.simplegeo.com/1.0/features/SG_2zfoWFV9M6YC6WLPeNeK8h_64.836680_-147.806020@1293731153.json", "address": "3505 Airport Way", "owner": "simplegeo", "postcode": "99709"}}
{"geometry": {"type": "Point", "coordinates": [-149.885239, 61.145073]}, "type": "Feature", "id": "SG_64kAPRYwOIqkGno0OJGscX_61.145073_-149.885239@1293731153", "properties": {"province": "AK", "city": "Anchorage", "name": "Anchorage Prtctive Catings Inc", "country": "US", "classifiers": [{"category": "Building & Trades", "type": "Services", "subcategory": "Construction"}], "phone": "+1 907 644 0386", "href": "http://api.simplegeo.com/1.0/features/SG_64kAPRYwOIqkGno0OJGscX_61.145073_-149.885239@1293731153.json", "address": "8239 Stormy Pl", "owner": "simplegeo", "postcode": "99518"}}
{"geometry": {"type": "Point", "coordinates": [-149.888983, 61.217491]}, "type": "Feature", "id": "SG_0f3IMRmHiuKvaAiYRl6h73_61.217491_-149.888983@1293731153", "properties": {"province": "AK", "website": "www.lastyle.com", "name": "L A Style & Retail Ctr", "city": "Anchorage", "country": "US", "classifiers": [{"category": "Personal", "type": "Services", "subcategory": "Beauty Salon"}], "phone": "+1 907 276 4247", "href": "http://api.simplegeo.com/1.0/features/SG_0f3IMRmHiuKvaAiYRl6h73_61.217491_-149.888983@1293731153.json", "address": "320 W 5th Ave", "owner": "simplegeo", "postcode": "99501"}}
{"geometry": {"type": "Point", "coordinates": [-151.551418, 59.641701]}, "type": "Feature", "id": "SG_42jWwUgySWrdm2ojdv2SNr_59.641701_-151.551418@1293731153", "properties": {"province": "AK", "city": "Homer", "name": "Senator Gary Stevens", "country": "US", "classifiers": [{"category": "Government", "type": "Public Place", "subcategory": "Office"}], "phone": "+1 907 235 0690", "href": "http://api.simplegeo.com/1.0/features/SG_42jWwUgySWrdm2ojdv2SNr_59.641701_-151.551418@1293731153.json", "address": "345 Sterling Hwy", "owner": "simplegeo", "postcode": "99603"}}
{"geometry": {"type": "Point", "coordinates": [-151.122684, 60.47487]}, "type": "Feature", "id": "SG_3yvlnufOU2VcFX7EfYpXRq_60.474870_-151.122684@1293731153", "properties": {"province": "AK", "city": "Soldotna", "name": "Alaska Sure Seal", "tags": ["product", "asphalt"], "country": "US", "classifiers": [{"category": "Building & Trades", "type": "Services", "subcategory": "Construction"}], "phone": "+1 907 262 4069", "href": "http://api.simplegeo.com/1.0/features/SG_3yvlnufOU2VcFX7EfYpXRq_60.474870_-151.122684@1293731153.json", "address": "785 Brooks Ave", "owner": "simplegeo", "postcode": "99669"}}
{"geometry": {"type": "Point", "coordinates": [-149.808272, 61.206468]}, "type": "Feature", "id": "SG_04xKfk4edDKBeUvRKF8qSt_61.206468_-149.808272@1293731153", "properties": {"province": "AK", "city": "Anchorage", "name": "Mini Stop", "country": "US", "classifiers": [{"category": "Food & Beverages", "type": "Retail Goods", "subcategory": "Groceries & Convenience Stores"}], "phone": "+1 907 272 2955", "href": "http://api.simplegeo.com/1.0/features/SG_04xKfk4edDKBeUvRKF8qSt_61.206468_-149.808272@1293731153.json", "address": "1565 S Bragaw St", "owner": "simplegeo", "postcode": "99508"}}
{"geometry": {"type": "Point", "coordinates": [-149.779039, 61.195322]}, "type": "Feature", "id": "SG_1JEfSJYZqAZJePlQMcNMMh_61.195322_-149.779039@1293731153", "properties": {"province": "AK", "city": "Anchorage", "name": "Wonder Hostess Thrift Store", "tags": ["baker"], "country": "US", "classifiers": [{"category": "Food & Beverages", "type": "Retail Goods", "subcategory": "Bakery"}], "phone": "+1 907 338 6975", "href": "http://api.simplegeo.com/1.0/features/SG_1JEfSJYZqAZJePlQMcNMMh_61.195322_-149.779039@1293731153.json", "address": "5437 E Northern Lights Blvd", "owner": "simplegeo", "postcode": "99508"}}
{"geometry": {"type": "Point", "coordinates": [-149.884368, 61.182098]}, "type": "Feature", "id": "SG_0HJvCtUpLM3g3xFLtHS8nw_61.182098_-149.884368@1293731153", "properties": {"province": "AK", "city": "Anchorage", "name": "Superior Products Inc", "tags": ["home", "log", "cabin"], "country": "US", "classifiers": [{"category": "Manufacturing", "type": "Manufacturing & Wholesale Goods", "subcategory": "Buildings"}], "phone": "+1 907 345 3323", "href": "http://api.simplegeo.com/1.0/features/SG_0HJvCtUpLM3g3xFLtHS8nw_61.182098_-149.884368@1293731153.json", "address": "4141 B St", "owner": "simplegeo", "postcode": "99503"}}
{"geometry": {"type": "Point", "coordinates": [-148.001415, 64.84605]}, "type": "Feature", "id": "SG_7VIk5azeRNmreI8qfJRrgl_64.846050_-148.001415@1293731153", "properties": {"province": "AK", "city": "Fairbanks", "name": "Alaska Window Co", "tags": ["window", "metal", "frame", "mfg"], "country": "US", "classifiers": [{"category": "Manufacturing", "type": "Manufacturing & Wholesale Goods", "subcategory": "Rubber & Plastics"}], "phone": "+1 907 479 5874", "href": "http://api.simplegeo.com/1.0/features/SG_7VIk5azeRNmreI8qfJRrgl_64.846050_-148.001415@1293731153.json", "address": "3536 Parks Hwy", "owner": "simplegeo", "postcode": "99709"}}
{"geometry": {"type": "Point", "coordinates": [-149.859272, 61.213543]}, "type": "Feature", "id": "SG_3PjKVb8eIRba0cWGLPxHiS_61.213543_-149.859272@1293731153", "properties": {"province": "AK", "city": "Anchorage", "name": "Rebecca Kinney's Beauty Supply", "country": "US", "classifiers": [{"category": "Personal", "type": "Services", "subcategory": "Beauty Salon"}], "phone": "+1 907 272 0625", "href": "http://api.simplegeo.com/1.0/features/SG_3PjKVb8eIRba0cWGLPxHiS_61.213543_-149.859272@1293731153.json", "address": "1230 E 9th Ave", "owner": "simplegeo", "postcode": "99501"}}
{"geometry": {"type": "Point", "coordinates": [-149.49411, 61.5794]}, "type": "Feature", "id": "SG_4ooJ0t8xA4VGx9iH8H0LwU_61.579400_-149.494110@1293731153", "properties": {"province": "AK", "city": "Wasilla", "name": "Hair Effects", "country": "US", "classifiers": [{"category": "Personal", "type": "Services", "subcategory": "Beauty Salon"}], "phone": "+1 907 357 4247", "href": "http://api.simplegeo.com/1.0/features/SG_4ooJ0t8xA4VGx9iH8H0LwU_61.579400_-149.494110@1293731153.json", "address": "1301 W Parks Hwy", "owner": "simplegeo", "postcode": "99654"}}
{"geometry": {"type": "Point", "coordinates": [-150.842076, 60.514739]}, "type": "Feature", "id": "SG_5kG8RoVQbyexrjz32croeh_60.514739_-150.842076@1293731153", "properties": {"province": "AK", "city": "Sterling", "name": "Rogers Painting Svc", "tags": ["painter"], "country": "US", "classifiers": [{"category": "Building & Trades", "type": "Services", "subcategory": "Construction"}], "phone": "+1 907 262 0674", "href": "http://api.simplegeo.com/1.0/features/SG_5kG8RoVQbyexrjz32croeh_60.514739_-150.842076@1293731153.json", "address": "36615 Bradford Rd", "owner": "simplegeo", "postcode": "99672"}}
{"geometry": {"type": "Point", "coordinates": [-149.942429, 61.162041]}, "type": "Feature", "id": "SG_2j4kd0mrA2NfvheHfdH8oX_61.162041_-149.942429@1293731153", "properties": {"province": "AK", "city": "Anchorage", "name": "Art House", "tags": ["school", "instruction", "art"], "country": "US", "classifiers": [{"category": "Education", "type": "Public Place", "subcategory": "Special Training"}], "phone": "+1 907 248 1688", "href": "http://api.simplegeo.com/1.0/features/SG_2j4kd0mrA2NfvheHfdH8oX_61.162041_-149.942429@1293731153.json", "address": "6461 Reed Ln", "owner": "simplegeo", "postcode": "99502"}}
{"geometry": {"type": "Point", "coordinates": [-149.913088, 61.195297]}, "type": "Feature", "id": "SG_0ZHdxMlbh4DSOzxSqehRvs_61.195297_-149.913088@1293731153", "properties": {"province": "AK", "city": "Anchorage", "name": "Silk Road Rugs", "tags": ["interior", "consultant", "design", "decorator"], "country": "US", "classifiers": [{"category": "Professional", "type": "Services", "subcategory": "Business Services"}], "phone": "+1 907 336 7847", "href": "http://api.simplegeo.com/1.0/features/SG_0ZHdxMlbh4DSOzxSqehRvs_61.195297_-149.913088@1293731153.json", "address": "1200 W Northern Lights Blvd", "owner": "simplegeo", "postcode": "99503"}}
{"geometry": {"type": "Point", "coordinates": [-135.367947, 57.055101]}, "type": "Feature", "id": "SG_772R1mEVJmYECGef79kL8W_57.055101_-135.367947@1293731153", "properties": {"province": "AK", "city": "Sitka", "name": "LAB Flying Svc Inc", "tags": ["company"], "country": "US", "classifiers": [{"category": "Airline", "type": "Transportation", "subcategory": ""}], "phone": "+1 907 747 4779", "href": "http://api.simplegeo.com/1.0/features/SG_772R1mEVJmYECGef79kL8W_57.055101_-135.367947@1293731153.json", "address": "517 Airport Rd", "owner": "simplegeo", "postcode": "99835"}}
{"geometry": {"type": "Point", "coordinates": [-149.883251, 61.203609]}, "type": "Feature", "id": "SG_2dQxsUDc45F0uHJH5tyAAA_61.203609_-149.883251@1293731153", "properties": {"province": "AK", "city": "Anchorage", "name": "ENTRIX Inc", "tags": ["environmental", "ecological"], "country": "US", "classifiers": [{"category": "Professional", "type": "Services", "subcategory": "Research"}], "phone": "+1 907 563 0438", "href": "http://api.simplegeo.com/1.0/features/SG_2dQxsUDc45F0uHJH5tyAAA_61.203609_-149.883251@1293731153.json", "address": "1600 A St", "owner": "simplegeo", "postcode": "99501"}}
{"geometry": {"type": "Point", "coordinates": [-149.863818, 61.119111]}, "type": "Feature", "id": "SG_3h4bHXr32uXCGa6WWcNvIR_61.119111_-149.863818@1293731153", "properties": {"province": "AK", "city": "Anchorage", "name": "Bradley House", "country": "US", "classifiers": [{"category": "Restaurant", "type": "Food & Drink", "subcategory": ""}], "phone": "+1 907 336 7177", "href": "http://api.simplegeo.com/1.0/features/SG_3h4bHXr32uXCGa6WWcNvIR_61.119111_-149.863818@1293731153.json", "address": "11321 Old Seward Hwy", "owner": "simplegeo", "postcode": "99515"}}
{"geometry": {"type": "Point", "coordinates": [-149.805432, 61.145561]}, "type": "Feature", "id": "SG_65g0PIG3GPBvL45Mv9yUMb_61.145561_-149.805432@1293731153", "properties": {"province": "AK", "city": "Anchorage", "name": "Rival Glass Co", "tags": ["glass", "window", "plate"], "country": "US", "classifiers": [{"category": "Home & Garden", "type": "Retail Goods", "subcategory": "Building Materials"}], "phone": "+1 907 349 0150", "href": "http://api.simplegeo.com/1.0/features/SG_65g0PIG3GPBvL45Mv9yUMb_61.145561_-149.805432@1293731153.json", "address": "8201 Wellsley Ct", "owner": "simplegeo", "postcode": "99507"}}
{"geometry": {"type": "Point", "coordinates": [-161.770132, 60.794784]}, "type": "Feature", "id": "SG_3Igv4Qom3eCJ9cmYNx4261_60.794784_-161.770132@1293731153", "properties": {"province": "AK", "city": "Bethel", "name": "Wells Fargo Bank", "country": "US", "classifiers": [{"category": "Banks & Credit Unions", "type": "Services", "subcategory": "Bank"}], "phone": "+1 907 543 3875", "href": "http://api.simplegeo.com/1.0/features/SG_3Igv4Qom3eCJ9cmYNx4261_60.794784_-161.770132@1293731153.json", "address": "460 Ridgecrest Dr", "owner": "simplegeo", "postcode": "99559"}}
{"geometry": {"type": "Point", "coordinates": [-149.828925, 61.205625]}, "type": "Feature", "id": "SG_73lyXjx1QNtpFaeBUBvt4R_61.205625_-149.828925@1293731153", "properties": {"province": "AK", "city": "Anchorage", "name": "Spectrum Design", "tags": ["consultant", "lighting"], "country": "US", "classifiers": [{"category": "Professional", "type": "Services", "subcategory": "Management & Consulting"}], "phone": "+1 907 276 6422", "href": "http://api.simplegeo.com/1.0/features/SG_73lyXjx1QNtpFaeBUBvt4R_61.205625_-149.828925@1293731153.json", "address": "2701 Kobuk Ct", "owner": "simplegeo", "postcode": "99508"}}
{"geometry": {"type": "Point", "coordinates": [-147.755128, 64.813308]}, "type": "Feature", "id": "SG_0uVuHHYSchskOpwQ4TTVxJ_64.813308_-147.755128@1293731153", "properties": {"province": "AK", "city": "Fairbanks", "name": "Alakota Ventures", "tags": ["decor", "furniture", "accessory"], "country": "US", "classifiers": [{"category": "Wholesale", "type": "Manufacturing & Wholesale Goods", "subcategory": "Home Furnishings"}], "phone": "+1 907 457 3521", "href": "http://api.simplegeo.com/1.0/features/SG_0uVuHHYSchskOpwQ4TTVxJ_64.813308_-147.755128@1293731153.json", "address": "3521 Industrial Ave", "owner": "simplegeo", "postcode": "99701"}}
{"geometry": {"type": "Point", "coordinates": [-132.336441, 56.403127]}, "type": "Feature", "id": "SG_0cs6TDIbuO9YAWrVzky0FE_56.403127_-132.336441@1293731153", "properties": {"province": "AK", "city": "Wrangell", "name": "Helgeson Woodworking", "tags": ["woodworker"], "country": "US", "classifiers": [{"category": "Building & Trades", "type": "Services", "subcategory": "Construction"}], "phone": "+1 907 874 3288", "href": "http://api.simplegeo.com/1.0/features/SG_0cs6TDIbuO9YAWrVzky0FE_56.403127_-132.336441@1293731153.json", "address": "9 Zimovia Hwy", "owner": "simplegeo", "postcode": "99929"}}
{"geometry": {"type": "Point", "coordinates": [-149.863906, 61.140596]}, "type": "Feature", "id": "SG_6hEYzGee6Azwh8Gxq0Nx0s_61.140596_-149.863906@1293731153", "properties": {"province": "AK", "city": "Anchorage", "name": "Credit Union 1", "country": "US", "classifiers": [{"category": "Banks & Credit Unions", "type": "Services", "subcategory": "Bank"}], "phone": "+1 907 339 9485", "href": "http://api.simplegeo.com/1.0/features/SG_6hEYzGee6Azwh8Gxq0Nx0s_61.140596_-149.863906@1293731153.json", "address": "8935 Old Seward Hwy", "owner": "simplegeo", "postcode": "99515"}}
{"geometry": {"type": "Point", "coordinates": [-149.111167, 61.600058]}, "type": "Feature", "id": "SG_3QKg5A1Kk6oZDV22aTJtmq_61.600058_-149.111167@1293731153", "properties": {"province": "AK", "city": "Palmer", "name": "Matanuska Susitna Purchasing", "tags": ["village"], "country": "US", "classifiers": [{"category": "Government", "type": "Public Place", "subcategory": "Office"}], "phone": "+1 907 745 9601", "href": "http://api.simplegeo.com/1.0/features/SG_3QKg5A1Kk6oZDV22aTJtmq_61.600058_-149.111167@1293731153.json", "address": "350 E Dahlia Ave", "owner": "simplegeo", "postcode": "99645"}}
{"geometry": {"type": "Point", "coordinates": [-147.748977, 64.843409]}, "type": "Feature", "id": "SG_4RPsVqPR3jIq84tS6E3VL5_64.843409_-147.748977@1293731153", "properties": {"province": "AK", "city": "Fairbanks", "name": "Camp Fire Birch Park", "tags": ["youth", "organization", "center"], "country": "US", "classifiers": [{"category": "Social Services", "type": "Services", "subcategory": ""}], "phone": "+1 907 452 2687", "href": "http://api.simplegeo.com/1.0/features/SG_4RPsVqPR3jIq84tS6E3VL5_64.843409_-147.748977@1293731153.json", "address": "505 Stewart St", "owner": "simplegeo", "postcode": "99701"}}
{"geometry": {"type": "Point", "coordinates": [-146.366209, 61.133797]}, "type": "Feature", "id": "SG_6GjNGWlri7pAMZVFTxnoJU_61.133797_-146.366209@1293731153", "properties": {"province": "AK", "city": "Valdez", "name": "Sound Therapy", "tags": ["therapist", "massage"], "country": "US", "classifiers": [{"category": "Personal", "type": "Services", "subcategory": ""}], "phone": "+1 907 835 5829", "href": "http://api.simplegeo.com/1.0/features/SG_6GjNGWlri7pAMZVFTxnoJU_61.133797_-146.366209@1293731153.json", "address": "430 W Lowe St", "owner": "simplegeo", "postcode": "99686"}}
{"geometry": {"type": "Point", "coordinates": [-147.683198, 64.816543]}, "type": "Feature", "id": "SG_6hsRkpfi8gD6uxiSDptC26_64.816543_-147.683198@1293731153", "properties": {"province": "AK", "city": "Fairbanks", "name": "AAA Lundeen's Body Shop", "tags": ["body", "automobile", "painting"], "country": "US", "classifiers": [{"category": "Retail", "type": "Services", "subcategory": "Auto Repair"}], "phone": "+1 907 456 5744", "href": "http://api.simplegeo.com/1.0/features/SG_6hsRkpfi8gD6uxiSDptC26_64.816543_-147.683198@1293731153.json", "address": "701 Williams Gate Rd", "owner": "simplegeo", "postcode": "99701"}}
{"geometry": {"type": "Point", "coordinates": [-149.746568, 61.109408]}, "type": "Feature", "id": "SG_12Whjevh50RBIfFTwWCwME_61.109408_-149.746568@1293731153", "properties": {"province": "AK", "city": "Anchorage", "name": "Amazing Grace Miniature Horses", "tags": ["breeder", "horse"], "country": "US", "classifiers": [{"category": "Retail", "type": "Services", "subcategory": "Animal Services"}], "phone": "+1 907 346 2558", "href": "http://api.simplegeo.com/1.0/features/SG_12Whjevh50RBIfFTwWCwME_61.109408_-149.746568@1293731153.json", "address": "7340 Holman Ave", "owner": "simplegeo", "postcode": "99516"}}
{"geometry": {"type": "Point", "coordinates": [-149.828885, 61.209788]}, "type": "Feature", "id": "SG_2FYXQ50cW6tHuxp1nZrbYi_61.209788_-149.828885@1293731153", "properties": {"province": "AK", "city": "Anchorage", "name": "Sandra L Clapper", "tags": ["midwife"], "country": "US", "classifiers": [{"category": "Health Services", "type": "Services", "subcategory": "Health Practitioner"}], "phone": "+1 907 264 2333", "href": "http://api.simplegeo.com/1.0/features/SG_2FYXQ50cW6tHuxp1nZrbYi_61.209788_-149.828885@1293731153.json", "address": "2741 Debarr Rd", "owner": "simplegeo", "postcode": "99508"}}
{"geometry": {"type": "Point", "coordinates": [-147.79018, 64.813017]}, "type": "Feature", "id": "SG_2bhogIrnEp6K5HfEVCb9mM_64.813017_-147.790180@1293731153", "properties": {"province": "AK", "city": "Fairbanks", "name": "Denali Fenceworks", "tags": ["fencing", "guardrail", "contractor", "fence", "supply"], "country": "US", "classifiers": [{"category": "Building & Trades", "type": "Services", "subcategory": "Construction"}], "phone": "+1 907 474 9542", "href": "http://api.simplegeo.com/1.0/features/SG_2bhogIrnEp6K5HfEVCb9mM_64.813017_-147.790180@1293731153.json", "address": "2950 Van Horn Rd", "owner": "simplegeo", "postcode": "99709"}}
{"geometry": {"type": "Point", "coordinates": [-149.744053, 61.112158]}, "type": "Feature", "id": "SG_5HbMl3f0E5LVMrqhFbuX5E_61.112158_-149.744053@1293731153", "properties": {"province": "AK", "city": "Anchorage", "name": "Alaskan Frontier Gardens B & B", "tags": ["breakfast", "accommodation", "bed"], "country": "US", "classifiers": [{"category": "Travel", "type": "Entertainment", "subcategory": "Hotels & Motels"}], "phone": "+1 907 345 6556", "href": "http://api.simplegeo.com/1.0/features/SG_5HbMl3f0E5LVMrqhFbuX5E_61.112158_-149.744053@1293731153.json", "address": "7440 Alatna Ave", "owner": "simplegeo", "postcode": "99507"}}
{"geometry": {"type": "Point", "coordinates": [-134.587981, 58.359826]}, "type": "Feature", "id": "SG_0KUSphcdMwP65g74RXWSTq_58.359826_-134.587981@1293731153", "properties": {"province": "AK", "city": "Juneau", "name": "Hot Sheet", "tags": ["newspaper"], "country": "US", "classifiers": [{"category": "Manufacturing", "type": "Manufacturing & Wholesale Goods", "subcategory": "Printing"}], "phone": "+1 907 789 4145", "href": "http://api.simplegeo.com/1.0/features/SG_0KUSphcdMwP65g74RXWSTq_58.359826_-134.587981@1293731153.json", "address": "1910 Alex Holden Way", "owner": "simplegeo", "postcode": "99801"}}
{"geometry": {"type": "Point", "coordinates": [-149.866831, 61.144657]}, "type": "Feature", "id": "SG_03nXFF2TJrogR2gkrjbKys_61.144657_-149.866831@1293731153", "properties": {"province": "AK", "city": "Anchorage", "name": "Mad Hatter Geoffrey", "country": "US", "classifiers": [{"category": "Shopping", "type": "Retail Goods", "subcategory": "Clothing, Apparel, & Fashions"}], "phone": "+1 907 349 3071", "href": "http://api.simplegeo.com/1.0/features/SG_03nXFF2TJrogR2gkrjbKys_61.144657_-149.866831@1293731153.json", "address": "800 E Dimond Blvd", "owner": "simplegeo", "postcode": "99515"}}
{"geometry": {"type": "Point", "coordinates": [-149.754577, 61.181875]}, "type": "Feature", "id": "SG_1YOTwfwBwHfUQdpWGeOaPs_61.181875_-149.754577@1293731153", "properties": {"province": "AK", "city": "Anchorage", "name": "Remote Property Inc", "country": "US", "classifiers": [{"category": "Real Estate", "type": "Services", "subcategory": "Real Estate Agent"}], "phone": "+1 907 277 4608", "href": "http://api.simplegeo.com/1.0/features/SG_1YOTwfwBwHfUQdpWGeOaPs_61.181875_-149.754577@1293731153.json", "address": "4126 Apollo Dr", "owner": "simplegeo", "postcode": "99504"}}
{"geometry": {"type": "Point", "coordinates": [-149.898032, 61.185632]}, "type": "Feature", "id": "SG_18vc4WqUMnjgOVz66iupwP_61.185632_-149.898032@1293731153", "properties": {"province": "AK", "city": "Anchorage", "name": "Schlumberger Oilfield Services", "tags": ["field", "public", "relations"], "country": "US", "classifiers": [{"category": "Mining & Drilling", "type": "Manufacturing & Wholesale Goods", "subcategory": ""}], "phone": "+1 907 273 1700", "href": "http://api.simplegeo.com/1.0/features/SG_18vc4WqUMnjgOVz66iupwP_61.185632_-149.898032@1293731153.json", "address": "3940 Arctic Blvd", "owner": "simplegeo", "postcode": "99503"}}
{"geometry": {"type": "Point", "coordinates": [-149.870612, 61.200772]}, "type": "Feature", "id": "SG_1BikvklNjcVvMrzRFsAxKf_61.200772_-149.870612@1293731153", "properties": {"province": "AK", "city": "Anchorage", "name": "Hillside Chalet", "tags": ["apartment"], "country": "US", "classifiers": [{"category": "Real Estate", "type": "Services", "subcategory": "Real Estate Operator"}], "phone": "+1 907 274 0015", "href": "http://api.simplegeo.com/1.0/features/SG_1BikvklNjcVvMrzRFsAxKf_61.200772_-149.870612@1293731153.json", "address": "631 E 22nd Ave", "owner": "simplegeo", "postcode": "99503"}}
{"geometry": {"type": "Point", "coordinates": [-147.706304, 64.810586]}, "type": "Feature", "id": "SG_2GGYzYKH6UFyB8gD2UYfpw_64.810586_-147.706304@1293731153", "properties": {"province": "AK", "city": "Fairbanks", "name": "Lennie Taylor Shop", "tags": ["truck"], "country": "US", "classifiers": [{"category": "Retail", "type": "Services", "subcategory": "Auto Repair"}], "phone": "+1 907 456 6497", "href": "http://api.simplegeo.com/1.0/features/SG_2GGYzYKH6UFyB8gD2UYfpw_64.810586_-147.706304@1293731153.json", "address": "3605 Leasure St", "owner": "simplegeo", "postcode": "99701"}}
{"geometry": {"type": "Point", "coordinates": [-134.577199, 58.388003]}, "type": "Feature", "id": "SG_4iWTAdAn0WY5pq7AuvffyI_58.388003_-134.577199@1293731153", "properties": {"province": "AK", "city": "Juneau", "name": "Juneau Home Studies", "tags": ["agency", "adoption"], "country": "US", "classifiers": [{"category": "Social Services", "type": "Services", "subcategory": ""}], "phone": "+1 907 789 7586", "href": "http://api.simplegeo.com/1.0/features/SG_4iWTAdAn0WY5pq7AuvffyI_58.388003_-134.577199@1293731153.json", "address": "8923 Tanis Dr", "owner": "simplegeo", "postcode": "99801"}}
{"geometry": {"type": "Point", "coordinates": [-134.405556, 58.300492]}, "type": "Feature", "id": "SG_0aiM3NFKgIoQyCAakjIz5e_58.300492_-134.405556@1293731153", "properties": {"province": "AK", "city": "Juneau", "name": "Ann Miletich", "tags": ["arts", "artist"], "country": "US", "classifiers": [{"category": "Professional", "type": "Services", "subcategory": ""}], "phone": "+1 907 463 1525", "href": "http://api.simplegeo.com/1.0/features/SG_0aiM3NFKgIoQyCAakjIz5e_58.300492_-134.405556@1293731153.json", "address": "114 S Franklin St", "owner": "simplegeo", "postcode": "99801"}}
{"geometry": {"type": "Point", "coordinates": [-147.70799, 64.848901]}, "type": "Feature", "id": "SG_0rCVCxigZ49fHcJ7evhjdy_64.848901_-147.707990@1293731153", "properties": {"province": "AK", "city": "Fairbanks", "name": "Rod's Saw Shop", "tags": ["engine"], "country": "US", "classifiers": [{"category": "Home & Garden", "type": "Retail Goods", "subcategory": "Garden Supply"}], "phone": "+1 907 452 6318", "href": "http://api.simplegeo.com/1.0/features/SG_0rCVCxigZ49fHcJ7evhjdy_64.848901_-147.707990@1293731153.json", "address": "127 Minnie St", "owner": "simplegeo", "postcode": "99701"}}
{"geometry": {"type": "Point", "coordinates": [-149.947615, 61.120889]}, "type": "Feature", "id": "SG_2m0eEd3PbRF5wumvarkC8u_61.120889_-149.947615@1293731153", "properties": {"province": "AK", "city": "Anchorage", "name": "Novakovichs Enterprises Inc", "tags": ["roofing", "contractor"], "country": "US", "classifiers": [{"category": "Building & Trades", "type": "Services", "subcategory": "Construction"}], "phone": "+1 907 344 3230", "href": "http://api.simplegeo.com/1.0/features/SG_2m0eEd3PbRF5wumvarkC8u_61.120889_-149.947615@1293731153.json", "address": "3940 Alitak Bay Cir", "owner": "simplegeo", "postcode": "99515"}}
{"geometry": {"type": "Point", "coordinates": [-149.906229, 61.108936]}, "type": "Feature", "id": "SG_7FMj3RI14cosPul6Uvu6oL_61.108936_-149.906229@1293731153", "properties": {"province": "AK", "city": "Anchorage", "name": "Whirling Rainbow", "tags": ["alternative", "care"], "country": "US", "classifiers": [{"category": "Health Services", "type": "Services", "subcategory": "Clinic"}], "phone": "+1 907 336 7439", "href": "http://api.simplegeo.com/1.0/features/SG_7FMj3RI14cosPul6Uvu6oL_61.108936_-149.906229@1293731153.json", "address": "1620 Shore Dr", "owner": "simplegeo", "postcode": "99515"}}
{"geometry": {"type": "Point", "coordinates": [-149.922728, 61.203282]}, "type": "Feature", "id": "SG_6m82pPE0jhongsuITCY5o3_61.203282_-149.922728@1293731153", "properties": {"province": "AK", "city": "Anchorage", "name": "Omni Massage Systems", "tags": ["personal", "massage", "devices", "mfg"], "country": "US", "classifiers": [{"category": "Manufacturing", "type": "Manufacturing & Wholesale Goods", "subcategory": "Rubber & Plastics"}], "phone": "+1 907 561 9055", "href": "http://api.simplegeo.com/1.0/features/SG_6m82pPE0jhongsuITCY5o3_61.203282_-149.922728@1293731153.json", "address": "1971 Wildwood Ln", "owner": "simplegeo", "postcode": "99517"}}
{"geometry": {"type": "Point", "coordinates": [-149.834378, 61.181967]}, "type": "Feature", "id": "SG_3TtDZpI91hHtXG9w5UFXRk_61.181967_-149.834378@1293731153", "properties": {"province": "AK", "city": "Anchorage", "name": "Ame W Ivanov", "tags": ["attorney"], "country": "US", "classifiers": [{"category": "Professional", "type": "Services", "subcategory": "Lawyer & Legal Services"}], "phone": "+1 907 562 2215", "href": "http://api.simplegeo.com/1.0/features/SG_3TtDZpI91hHtXG9w5UFXRk_61.181967_-149.834378@1293731153.json", "address": "4325 Laurel St", "owner": "simplegeo", "postcode": "99508"}}
{"geometry": {"type": "Point", "coordinates": [-152.407922, 57.788266]}, "type": "Feature", "id": "SG_79bdCNuxuFx2AmUO2HtOlP_57.788266_-152.407922@1293731153", "properties": {"province": "AK", "city": "Kodiak", "name": "Island Provider Transportation", "tags": ["towing"], "country": "US", "classifiers": [{"category": "Marine", "type": "Transportation", "subcategory": ""}], "phone": "+1 907 481 2970", "href": "http://api.simplegeo.com/1.0/features/SG_79bdCNuxuFx2AmUO2HtOlP_57.788266_-152.407922@1293731153.json", "address": "508 Marine Way W", "owner": "simplegeo", "postcode": "99615"}}
{"geometry": {"type": "Point", "coordinates": [-131.669675, 55.349715]}, "type": "Feature", "id": "SG_59Sn8XmpRj9Ul1Lidfa9bt_55.349715_-131.669675@1293731153", "properties": {"province": "AK", "city": "Ketchikan", "name": "Alaska Communications Systems", "country": "US", "classifiers": [{"category": "Communications", "type": "Services", "subcategory": ""}], "phone": "+1 907 225 8730", "href": "http://api.simplegeo.com/1.0/features/SG_59Sn8XmpRj9Ul1Lidfa9bt_55.349715_-131.669675@1293731153.json", "address": "135 Tuttle Way", "owner": "simplegeo", "postcode": "99901"}}
{"geometry": {"type": "Point", "coordinates": [-149.846525, 61.143791]}, "type": "Feature", "id": "SG_0uFJgBIMMglADLVfRqlpqe_61.143791_-149.846525@1293731153", "properties": {"province": "AK", "city": "Anchorage", "name": "Precision Carbide", "tags": ["sharpening"], "country": "US", "classifiers": [{"category": "Retail", "type": "Services", "subcategory": "Repair Shop"}], "phone": "+1 907 344 4612", "href": "http://api.simplegeo.com/1.0/features/SG_0uFJgBIMMglADLVfRqlpqe_61.143791_-149.846525@1293731153.json", "address": "1908 E 85th Ave", "owner": "simplegeo", "postcode": "99507"}}
{"geometry": {"type": "Point", "coordinates": [-147.752089, 64.81457]}, "type": "Feature", "id": "SG_4jC3ALukdbtJxfUsv48IDy_64.814570_-147.752089@1293731153", "properties": {"province": "AK", "city": "Fairbanks", "name": "Penn Cal & Assoc", "tags": ["accountant"], "country": "US", "classifiers": [{"category": "Professional", "type": "Services", "subcategory": "Accounting & Tax Preparation"}], "phone": "+1 907 456 5065", "href": "http://api.simplegeo.com/1.0/features/SG_4jC3ALukdbtJxfUsv48IDy_64.814570_-147.752089@1293731153.json", "address": "1861 Standard Ave", "owner": "simplegeo", "postcode": "99701"}}
{"geometry": {"type": "Point", "coordinates": [-147.679537, 64.858525]}, "type": "Feature", "id": "SG_0NsUB0ZMGYFOE3d2LU8jyG_64.858525_-147.679537@1293731153", "properties": {"province": "AK", "website": "www.seekins.com", "name": "Seekins Ford Lincoln Mercury", "tags": ["car", "dealer"], "country": "US", "classifiers": [{"category": "Autos & Motor Vehicles", "type": "Retail Goods", "subcategory": "Automobile Sales"}], "phone": "+1 907 459 4000", "href": "http://api.simplegeo.com/1.0/features/SG_0NsUB0ZMGYFOE3d2LU8jyG_64.858525_-147.679537@1293731153.json", "city": "Fairbanks", "address": "1625 Old Steese Hwy", "owner": "simplegeo", "postcode": "99701"}}
{"geometry": {"type": "Point", "coordinates": [-134.581121, 58.362752]}, "type": "Feature", "id": "SG_5giUl0nQ7mcueT2LxDOlXg_58.362752_-134.581121@1293731153", "properties": {"province": "AK", "city": "Juneau", "name": "AFLAC", "country": "US", "classifiers": [{"category": "Insurance", "type": "Services", "subcategory": "Insurance Agent"}], "phone": "+1 907 790 4425", "href": "http://api.simplegeo.com/1.0/features/SG_5giUl0nQ7mcueT2LxDOlXg_58.362752_-134.581121@1293731153.json", "address": "9000 Glacier Hwy", "owner": "simplegeo", "postcode": "99801"}}
{"geometry": {"type": "Point", "coordinates": [-149.820972, 61.189689]}, "type": "Feature", "id": "SG_3ncqmHFeWxEwwQZtwUiUa0_61.189689_-149.820972@1293731153", "properties": {"province": "AK", "city": "Anchorage", "name": "Mark J Mc Lean DDS", "tags": ["dentist"], "country": "US", "classifiers": [{"category": "Health Services", "type": "Services", "subcategory": "Doctor"}], "phone": "+1 907 562 6648", "href": "http://api.simplegeo.com/1.0/features/SG_3ncqmHFeWxEwwQZtwUiUa0_61.189689_-149.820972@1293731153.json", "address": "3340 Providence Dr", "owner": "simplegeo", "postcode": "99508"}}
{"geometry": {"type": "Point", "coordinates": [-147.778416, 64.863265]}, "type": "Feature", "id": "SG_2Uo5bJnEzMYwy8SiPjgnJs_64.863265_-147.778416@1293731153", "properties": {"province": "AK", "city": "Fairbanks", "name": "Alaska Equipment Rental & Sls", "tags": ["contractor"], "country": "US", "classifiers": [{"category": "Wholesale", "type": "Manufacturing & Wholesale Goods", "subcategory": "Machinery & Supplies"}], "phone": "+1 907 479 3138", "href": "http://api.simplegeo.com/1.0/features/SG_2Uo5bJnEzMYwy8SiPjgnJs_64.863265_-147.778416@1293731153.json", "address": "2401 College Rd", "owner": "simplegeo", "postcode": "99709"}}
{"geometry": {"type": "Point", "coordinates": [-152.395174, 57.794859]}, "type": "Feature", "id": "SG_3hKCbd3XU6oYnDKU3lJwQJ_57.794859_-152.395174@1293731153", "properties": {"province": "AK", "city": "Kodiak", "name": "Kodiak City Personnel", "tags": ["village"], "country": "US", "classifiers": [{"category": "Government", "type": "Public Place", "subcategory": "Office"}], "phone": "+1 907 486 8653", "href": "http://api.simplegeo.com/1.0/features/SG_3hKCbd3XU6oYnDKU3lJwQJ_57.794859_-152.395174@1293731153.json", "address": "710 Mill Bay Rd", "owner": "simplegeo", "postcode": "99615"}}
{"geometry": {"type": "Point", "coordinates": [-147.744638, 64.830227]}, "type": "Feature", "id": "SG_5Mnx76KCdDmwn6NSvKq5oH_64.830227_-147.744638@1293731153", "properties": {"province": "AK", "city": "Fairbanks", "name": "Prescription Center Pharmacy", "country": "US", "classifiers": [{"category": "Shopping", "type": "Retail Goods", "subcategory": "Pharmacy"}], "phone": "+1 907 452 1514", "href": "http://api.simplegeo.com/1.0/features/SG_5Mnx76KCdDmwn6NSvKq5oH_64.830227_-147.744638@1293731153.json", "address": "1919 Lathrop St", "owner": "simplegeo", "postcode": "99701"}}
{"geometry": {"type": "Point", "coordinates": [-147.686582, 64.827785]}, "type": "Feature", "id": "SG_01hcAzYPO1KpjRRxJJkIWF_64.827785_-147.686582@1293731153", "properties": {"province": "AK", "city": "Fort Wainwright", "name": "Arctic Light Elementary", "country": "US", "classifiers": [{"category": "Education", "type": "Public Place", "subcategory": "School"}], "phone": "+1 907 356 2038", "href": "http://api.simplegeo.com/1.0/features/SG_01hcAzYPO1KpjRRxJJkIWF_64.827785_-147.686582@1293731153.json", "address": "4167 Neely Rd", "owner": "simplegeo", "postcode": "99703"}}
{"geometry": {"type": "Point", "coordinates": [-149.3631, 61.570818]}, "type": "Feature", "id": "SG_4m4GR2xLmXuDhPPHi1Li2L_61.570818_-149.363100@1293731153", "properties": {"province": "AK", "city": "Wasilla", "name": "Mc Donald's", "country": "US", "classifiers": [{"category": "Restaurant", "type": "Food & Drink", "subcategory": ""}], "phone": "+1 907 373 2523", "href": "http://api.simplegeo.com/1.0/features/SG_4m4GR2xLmXuDhPPHi1Li2L_61.570818_-149.363100@1293731153.json", "address": "3501 E Parks Hwy", "owner": "simplegeo", "postcode": "99654"}}
{"geometry": {"type": "Point", "coordinates": [-149.950558, 61.148245]}, "type": "Feature", "id": "SG_0msWJ5kz13SQvpyOeduGDE_61.148245_-149.950558@1293731153", "properties": {"province": "AK", "city": "Anchorage", "name": "Calvary Church", "tags": ["church"], "country": "US", "classifiers": [{"category": "Organizations", "type": "Services", "subcategory": "Religious Organization"}], "phone": "+1 907 243 8984", "href": "http://api.simplegeo.com/1.0/features/SG_0msWJ5kz13SQvpyOeduGDE_61.148245_-149.950558@1293731153.json", "address": "3800 W 80th Ave", "owner": "simplegeo", "postcode": "99502"}}
{"geometry": {"type": "Point", "coordinates": [-149.881021, 61.171669]}, "type": "Feature", "id": "SG_4FubHTcEcZ0fXqucXQHL1E_61.171669_-149.881021@1293731153", "properties": {"province": "AK", "city": "Anchorage", "name": "Prescription Service Of Alaska", "country": "US", "classifiers": [{"category": "Insurance", "type": "Services", "subcategory": "Insurance Agent"}], "phone": "+1 907 770 3533", "href": "http://api.simplegeo.com/1.0/features/SG_4FubHTcEcZ0fXqucXQHL1E_61.171669_-149.881021@1293731153.json", "address": "201 E 54th Ave", "owner": "simplegeo", "postcode": "99518"}}
{"geometry": {"type": "Point", "coordinates": [-151.54323, 59.64559]}, "type": "Feature", "id": "SG_3JlsRV6Y4BQmfjmwQOplZS_59.645590_-151.543230@1293731153", "properties": {"province": "AK", "city": "Homer", "name": "Bear Claw Bakery", "tags": ["baker"], "country": "US", "classifiers": [{"category": "Food & Beverages", "type": "Retail Goods", "subcategory": "Bakery"}], "phone": "+1 907 235 2747", "href": "http://api.simplegeo.com/1.0/features/SG_3JlsRV6Y4BQmfjmwQOplZS_59.645590_-151.543230@1293731153.json", "address": "177 E Pioneer Ave", "owner": "simplegeo", "postcode": "99603"}}
{"geometry": {"type": "Point", "coordinates": [-149.86154, 61.111777]}, "type": "Feature", "id": "SG_7TPtUy3HgZs07WitObLjhk_61.111777_-149.861540@1293731153", "properties": {"province": "AK", "city": "Anchorage", "name": "Garden Montessori", "tags": ["kindergarten", "academic", "school"], "country": "US", "classifiers": [{"category": "Social Services", "type": "Services", "subcategory": "Child Care"}], "phone": "+1 907 345 9949", "href": "http://api.simplegeo.com/1.0/features/SG_7TPtUy3HgZs07WitObLjhk_61.111777_-149.861540@1293731153.json", "address": "11901 Industry Way", "owner": "simplegeo", "postcode": "99515"}}
{"geometry": {"type": "Point", "coordinates": [-147.705657, 64.851077]}, "type": "Feature", "id": "SG_5LdrC1z23Cjshj06Uyd99t_64.851077_-147.705657@1293731153", "properties": {"province": "AK", "city": "Fairbanks", "name": "Pet Palace", "tags": ["pet", "shop"], "country": "US", "classifiers": [{"category": "Shopping", "type": "Retail Goods", "subcategory": ""}], "phone": "+1 907 374 4747", "href": "http://api.simplegeo.com/1.0/features/SG_5LdrC1z23Cjshj06Uyd99t_64.851077_-147.705657@1293731153.json", "address": "20 College Rd", "owner": "simplegeo", "postcode": "99701"}}
{"geometry": {"type": "Point", "coordinates": [-149.831715, 61.221077]}, "type": "Feature", "id": "SG_3GZrJMuj7adClJu0owJc9E_61.221077_-149.831715@1293731153", "properties": {"province": "AK", "city": "Anchorage", "name": "Fleenor Paper Co", "tags": ["equipment", "moving", "supply"], "country": "US", "classifiers": [{"category": "Retail", "type": "Services", "subcategory": "Auto Rental"}], "phone": "+1 907 277 5403", "href": "http://api.simplegeo.com/1.0/features/SG_3GZrJMuj7adClJu0owJc9E_61.221077_-149.831715@1293731153.json", "address": "429 Industrial Way", "owner": "simplegeo", "postcode": "99501"}}
{"geometry": {"type": "Point", "coordinates": [-161.755589, 60.794861]}, "type": "Feature", "id": "SG_4QOQ0sw2rlwR4eqe1xIka4_60.794861_-161.755589@1293731153", "properties": {"province": "AK", "city": "Bethel", "name": "NAPA Auto Parts", "tags": ["automobile", "parts"], "country": "US", "classifiers": [{"category": "Autos & Motor Vehicles", "type": "Retail Goods", "subcategory": "Auto Supplies"}], "phone": "+1 907 543 2673", "href": "http://api.simplegeo.com/1.0/features/SG_4QOQ0sw2rlwR4eqe1xIka4_60.794861_-161.755589@1293731153.json", "address": "811 3rd Ave", "owner": "simplegeo", "postcode": "99559"}}
{"geometry": {"type": "Point", "coordinates": [-149.556788, 61.334643]}, "type": "Feature", "id": "SG_4KDjo5uSiqTz3dEEpWAxSk_61.334643_-149.556788@1293731153", "properties": {"province": "AK", "city": "Eagle River", "name": "Airboats R US Inc", "tags": ["mfg", "made", "custom"], "country": "US", "classifiers": [{"category": "Manufacturing", "type": "Manufacturing & Wholesale Goods", "subcategory": "Watercraft"}], "phone": "+1 907 694 2981", "href": "http://api.simplegeo.com/1.0/features/SG_4KDjo5uSiqTz3dEEpWAxSk_61.334643_-149.556788@1293731153.json", "address": "17443 Alice Loop", "owner": "simplegeo", "postcode": "99577"}}
{"geometry": {"type": "Point", "coordinates": [-147.734554, 64.840941]}, "type": "Feature", "id": "SG_13D7jtril0UN26Q7HzLdMh_64.840941_-147.734554@1293731153", "properties": {"province": "AK", "city": "Fairbanks", "name": "Balloonatics", "tags": ["party", "supply"], "country": "US", "classifiers": [{"category": "Shopping", "type": "Retail Goods", "subcategory": "Gifts & Souvenirs"}], "phone": "+1 907 458 7784", "href": "http://api.simplegeo.com/1.0/features/SG_13D7jtril0UN26Q7HzLdMh_64.840941_-147.734554@1293731153.json", "address": "950 Cowles St", "owner": "simplegeo", "postcode": "99701"}}
{"geometry": {"type": "Point", "coordinates": [-149.888496, 61.165999]}, "type": "Feature", "id": "SG_3T45nlYko2JFrvmZamXNG6_61.165999_-149.888496@1293731153", "properties": {"province": "AK", "city": "Anchorage", "name": "World Equipment Inc", "tags": ["equipment", "rental", "road"], "country": "US", "classifiers": [{"category": "Building & Trades", "type": "Services", "subcategory": "Construction"}], "phone": "+1 907 563 3557", "href": "http://api.simplegeo.com/1.0/features/SG_3T45nlYko2JFrvmZamXNG6_61.165999_-149.888496@1293731153.json", "address": "6028 Mackay St", "owner": "simplegeo", "postcode": "99518"}}
{"geometry": {"type": "Point", "coordinates": [-151.218888, 60.549105]}, "type": "Feature", "id": "SG_3PVQOF7iUOaJs3wRUawfYU_60.549105_-151.218888@1293731153", "properties": {"province": "AK", "city": "Kenai", "name": "Kenai Welding", "tags": ["welding"], "country": "US", "classifiers": [{"category": "Retail", "type": "Services", "subcategory": "Repair Shop"}], "phone": "+1 907 283 7380", "href": "http://api.simplegeo.com/1.0/features/SG_3PVQOF7iUOaJs3wRUawfYU_60.549105_-151.218888@1293731153.json", "address": "703 Childs Ave", "owner": "simplegeo", "postcode": "99611"}}
{"geometry": {"type": "Point", "coordinates": [-149.440566, 60.10053]}, "type": "Feature", "id": "SG_4Sn1tp0MMTDOqODeNlpHrt_60.100530_-149.440566@1293731153", "properties": {"province": "AK", "city": "Seward", "name": "Seward Phoenix Log", "tags": ["newspaper"], "country": "US", "classifiers": [{"category": "Manufacturing", "type": "Manufacturing & Wholesale Goods", "subcategory": "Printing"}], "phone": "+1 907 224 8070", "href": "http://api.simplegeo.com/1.0/features/SG_4Sn1tp0MMTDOqODeNlpHrt_60.100530_-149.440566@1293731153.json", "address": "302 Railway Ave", "owner": "simplegeo", "postcode": "99664"}}
{"geometry": {"type": "Point", "coordinates": [-147.75938, 64.818149]}, "type": "Feature", "id": "SG_0kSoAzM27QbaACXkD3Qbl8_64.818149_-147.759380@1293731153", "properties": {"province": "AK", "website": "www.pacificdda.com", "name": "Pacific Detroit Diesel-Allison", "tags": ["engine"], "country": "US", "classifiers": [{"category": "Wholesale", "type": "Manufacturing & Wholesale Goods", "subcategory": "Machinery & Supplies"}], "phone": "+1 907 479 1235", "href": "http://api.simplegeo.com/1.0/features/SG_0kSoAzM27QbaACXkD3Qbl8_64.818149_-147.759380@1293731153.json", "city": "Fairbanks", "address": "3177 N Van Horn Rd", "owner": "simplegeo", "postcode": "99701"}}
{"geometry": {"type": "Point", "coordinates": [-135.33281, 57.051028]}, "type": "Feature", "id": "SG_5zF4jjtRFCShAncCP6c32c_57.051028_-135.332810@1293731153", "properties": {"province": "AK", "city": "Sitka", "name": "Columbia Bar", "country": "US", "classifiers": [{"category": "Bars & Pubs", "type": "Food & Drink", "subcategory": ""}], "phone": "+1 907 747 3222", "href": "http://api.simplegeo.com/1.0/features/SG_5zF4jjtRFCShAncCP6c32c_57.051028_-135.332810@1293731153.json", "address": "326 Lincoln St", "owner": "simplegeo", "postcode": "99835"}}
{"geometry": {"type": "Point", "coordinates": [-135.333982, 57.05315]}, "type": "Feature", "id": "SG_6P6BPnWEBFGvrqlolcoAX4_57.053150_-135.333982@1293731153", "properties": {"province": "AK", "city": "Sitka", "name": "Naturopathic Health Clinic", "tags": ["physician"], "country": "US", "classifiers": [{"category": "Health Services", "type": "Services", "subcategory": "Health Practitioner"}], "phone": "+1 907 747 3351", "href": "http://api.simplegeo.com/1.0/features/SG_6P6BPnWEBFGvrqlolcoAX4_57.053150_-135.333982@1293731153.json", "address": "408 Oja Way", "owner": "simplegeo", "postcode": "99835"}}
{"geometry": {"type": "Point", "coordinates": [-147.792599, 64.84893]}, "type": "Feature", "id": "SG_0P0Pbk0hs6zr4OhKpbX3X3_64.848930_-147.792599@1293731153", "properties": {"province": "AK", "city": "Fairbanks", "name": "Phillips Field Equipment & Rpr", "tags": ["contractor"], "country": "US", "classifiers": [{"category": "Wholesale", "type": "Manufacturing & Wholesale Goods", "subcategory": "Machinery & Supplies"}], "phone": "+1 907 479 0834", "href": "http://api.simplegeo.com/1.0/features/SG_0P0Pbk0hs6zr4OhKpbX3X3_64.848930_-147.792599@1293731153.json", "address": "3415 Phillips Field Rd", "owner": "simplegeo", "postcode": "99709"}}
{"geometry": {"type": "Point", "coordinates": [-149.935852, 61.162677]}, "type": "Feature", "id": "SG_4ETwV8cp9EhFVlCHOp7Dv7_61.162677_-149.935852@1293731153", "properties": {"province": "AK", "city": "Anchorage", "name": "Hodgson Mechanical", "country": "US", "classifiers": [{"category": "Building & Trades", "type": "Services", "subcategory": "Plumbing"}], "phone": "+1 907 248 5323", "href": "http://api.simplegeo.com/1.0/features/SG_4ETwV8cp9EhFVlCHOp7Dv7_61.162677_-149.935852@1293731153.json", "address": "2748 W 64th Ave", "owner": "simplegeo", "postcode": "99502"}}
{"geometry": {"type": "Point", "coordinates": [-149.951731, 61.182716]}, "type": "Feature", "id": "SG_4T6Xo5vXonNolhx9NeK7IT_61.182716_-149.951731@1293731153", "properties": {"province": "AK", "city": "Anchorage", "name": "Hanco Imports", "tags": ["representative", "manufacturer"], "country": "US", "classifiers": [{"category": "Wholesale", "type": "Manufacturing & Wholesale Goods", "subcategory": "Durable Goods & Equipment"}], "phone": "+1 907 561 1736", "href": "http://api.simplegeo.com/1.0/features/SG_4T6Xo5vXonNolhx9NeK7IT_61.182716_-149.951731@1293731153.json", "address": "3619 W 42nd Ave", "owner": "simplegeo", "postcode": "99517"}}
{"geometry": {"type": "Point", "coordinates": [-149.463963, 61.582031]}, "type": "Feature", "id": "SG_6wKr9bbZq366VlLEteDjPM_61.582031_-149.463963@1293731153", "properties": {"province": "AK", "city": "Wasilla", "name": "Salvation Army Thrift Store", "tags": ["organization", "welfare"], "country": "US", "classifiers": [{"category": "Social Services", "type": "Services", "subcategory": ""}], "phone": "+1 907 376 7598", "href": "http://api.simplegeo.com/1.0/features/SG_6wKr9bbZq366VlLEteDjPM_61.582031_-149.463963@1293731153.json", "address": "461 W Parks Hwy", "owner": "simplegeo", "postcode": "99654"}}
{"geometry": {"type": "Point", "coordinates": [-145.741844, 60.54349]}, "type": "Feature", "id": "SG_5y0va562fn0h6MMXEZASZE_60.543490_-145.741844@1293731153", "properties": {"province": "AK", "city": "Cordova", "name": "Cordova Glass Shop", "tags": ["glass", "window", "plate"], "country": "US", "classifiers": [{"category": "Home & Garden", "type": "Retail Goods", "subcategory": "Building Materials"}], "phone": "+1 907 424 4530", "href": "http://api.simplegeo.com/1.0/features/SG_5y0va562fn0h6MMXEZASZE_60.543490_-145.741844@1293731153.json", "address": "613 Cedar St", "owner": "simplegeo", "postcode": "99574"}}
{"geometry": {"type": "Point", "coordinates": [-149.864114, 61.148546]}, "type": "Feature", "id": "SG_77JDHtZJpwLybmxXZ9fI2K_61.148546_-149.864114@1293731153", "properties": {"province": "AK", "city": "Anchorage", "name": "West", "tags": ["environmental", "ecological"], "country": "US", "classifiers": [{"category": "Professional", "type": "Services", "subcategory": "Research"}], "phone": "+1 907 770 2985", "href": "http://api.simplegeo.com/1.0/features/SG_77JDHtZJpwLybmxXZ9fI2K_61.148546_-149.864114@1293731153.json", "address": "7926 Old Seward Hwy", "owner": "simplegeo", "postcode": "99518"}}
{"geometry": {"type": "Point", "coordinates": [-147.714634, 64.821621]}, "type": "Feature", "id": "SG_6Es8dtfnvdPg3685F66s0C_64.821621_-147.714634@1293731153", "properties": {"province": "AK", "city": "Fairbanks", "name": "Los Amigos", "country": "US", "classifiers": [{"category": "Restaurant", "type": "Food & Drink", "subcategory": ""}], "phone": "+1 907 452 3684", "href": "http://api.simplegeo.com/1.0/features/SG_6Es8dtfnvdPg3685F66s0C_64.821621_-147.714634@1293731153.json", "address": "636 28th Ave", "owner": "simplegeo", "postcode": "99701"}}
{"geometry": {"type": "Point", "coordinates": [-149.929319, 61.159526]}, "type": "Feature", "id": "SG_2S15HifB7BflwtVhiYGUFQ_61.159526_-149.929319@1293731153", "properties": {"province": "AK", "city": "Anchorage", "name": "Circle Plumbing & Heating Inc", "tags": ["c"], "country": "US", "classifiers": [{"category": "Building & Trades", "type": "Services", "subcategory": "Construction"}], "phone": "+1 907 243 2171", "href": "http://api.simplegeo.com/1.0/features/SG_2S15HifB7BflwtVhiYGUFQ_61.159526_-149.929319@1293731153.json", "address": "2317 Raspberry Rd", "owner": "simplegeo", "postcode": "99502"}}
{"geometry": {"type": "Point", "coordinates": [-149.56329, 61.336493]}, "type": "Feature", "id": "SG_1qauTuIIEophGxgf6JkRfT_61.336493_-149.563290@1293731153", "properties": {"province": "AK", "website": "www.er-pc.org", "name": "Eagle River Presbyterian Chr", "tags": ["church"], "country": "US", "classifiers": [{"category": "Organizations", "type": "Services", "subcategory": "Religious Organization"}], "phone": "+1 907 694 5753", "href": "http://api.simplegeo.com/1.0/features/SG_1qauTuIIEophGxgf6JkRfT_61.336493_-149.563290@1293731153.json", "city": "Eagle River", "address": "12836 Old Glenn Hwy", "owner": "simplegeo", "postcode": "99577"}}
{"geometry": {"type": "Point", "coordinates": [-151.084543, 60.506457]}, "type": "Feature", "id": "SG_5VCFoaF6uOB9me59SYUCNY_60.506457_-151.084543@1293731153", "properties": {"province": "AK", "city": "Soldotna", "name": "Lucky Raven Tobacco", "tags": ["cigarette", "cigar", "dealer"], "country": "US", "classifiers": [{"category": "Wholesale", "type": "Manufacturing & Wholesale Goods", "subcategory": "Tobacco Products"}], "phone": "+1 907 260 6280", "href": "http://api.simplegeo.com/1.0/features/SG_5VCFoaF6uOB9me59SYUCNY_60.506457_-151.084543@1293731153.json", "address": "36312 Irons Ave", "owner": "simplegeo", "postcode": "99669"}}
{"geometry": {"type": "Point", "coordinates": [-147.753593, 64.862378]}, "type": "Feature", "id": "SG_3Ykaz58xQgtE5TSJTE9wI1_64.862378_-147.753593@1293731153", "properties": {"province": "AK", "city": "Fairbanks", "name": "Aurora Animal Clinic", "tags": ["veterinarian"], "country": "US", "classifiers": [{"category": "Retail", "type": "Services", "subcategory": "Veterinary Services"}], "phone": "+1 907 452 6055", "href": "http://api.simplegeo.com/1.0/features/SG_3Ykaz58xQgtE5TSJTE9wI1_64.862378_-147.753593@1293731153.json", "address": "1651 College Rd", "owner": "simplegeo", "postcode": "99709"}}
{"geometry": {"type": "Point", "coordinates": [-149.864102, 61.146418]}, "type": "Feature", "id": "SG_5B2ygQBb2W1dilMl82TwZm_61.146418_-149.864102@1293731153", "properties": {"province": "AK", "city": "Anchorage", "name": "Enterprise Brokers", "country": "US", "classifiers": [{"category": "Real Estate", "type": "Services", "subcategory": "Real Estate Agent"}], "phone": "+1 907 522 8084", "href": "http://api.simplegeo.com/1.0/features/SG_5B2ygQBb2W1dilMl82TwZm_61.146418_-149.864102@1293731153.json", "address": "8133 Old Seward Hwy", "owner": "simplegeo", "postcode": "99518"}}
{"geometry": {"type": "Point", "coordinates": [-149.867956, 61.193519]}, "type": "Feature", "id": "SG_2zI2qV2rNvXxNk8DZhcOlG_61.193519_-149.867956@1293731153", "properties": {"province": "AK", "city": "Anchorage", "name": "Garretts Tesoro", "tags": ["oil"], "country": "US", "classifiers": [{"category": "Autos & Motor Vehicles", "type": "Retail Goods", "subcategory": "Fuel & Gas Station"}], "phone": "+1 907 277 6025", "href": "http://api.simplegeo.com/1.0/features/SG_2zI2qV2rNvXxNk8DZhcOlG_61.193519_-149.867956@1293731153.json", "address": "2811 Seward Hwy", "owner": "simplegeo", "postcode": "99503"}}
{"geometry": {"type": "Point", "coordinates": [-149.836645, 61.125779]}, "type": "Feature", "id": "SG_4tjJzYPdTTv4kIK30eIzkT_61.125779_-149.836645@1293731153", "properties": {"province": "AK", "city": "Anchorage", "name": "Smr Janitoral Svc", "tags": ["janitor"], "country": "US", "classifiers": [{"category": "Building & Trades", "type": "Services", "subcategory": "Cleaning & Sanitation"}], "phone": "+1 907 344 8381", "href": "http://api.simplegeo.com/1.0/features/SG_4tjJzYPdTTv4kIK30eIzkT_61.125779_-149.836645@1293731153.json", "address": "10637 Spruce Vw Lp", "owner": "simplegeo", "postcode": "99507"}}
{"geometry": {"type": "Point", "coordinates": [-149.878966, 61.173624]}, "type": "Feature", "id": "SG_7U7v7ktzXy9rHcoaRMG3bQ_61.173624_-149.878966@1293731153", "properties": {"province": "AK", "city": "Anchorage", "name": "Caribou Construction Inc", "tags": ["field", "oil"], "country": "US", "classifiers": [{"category": "Mining & Drilling", "type": "Manufacturing & Wholesale Goods", "subcategory": ""}], "phone": "+1 907 563 5444", "href": "http://api.simplegeo.com/1.0/features/SG_7U7v7ktzXy9rHcoaRMG3bQ_61.173624_-149.878966@1293731153.json", "address": "5100 Cordova St", "owner": "simplegeo", "postcode": "99503"}}
{"geometry": {"type": "Point", "coordinates": [-149.796683, 61.086115]}, "type": "Feature", "id": "SG_2ZDj1RPt6ilw798S5Jtdzc_61.086115_-149.796683@1293731153", "properties": {"province": "AK", "city": "Anchorage", "name": "Interlocken Design", "tags": ["house", "construction", "architectural"], "country": "US", "classifiers": [{"category": "Real Estate", "type": "Services", "subcategory": "Architect"}], "phone": "+1 907 345 4571", "href": "http://api.simplegeo.com/1.0/features/SG_2ZDj1RPt6ilw798S5Jtdzc_61.086115_-149.796683@1293731153.json", "address": "4645 Manytell Ave", "owner": "simplegeo", "postcode": "99516"}}
{"geometry": {"type": "Point", "coordinates": [-149.897878, 61.194276]}, "type": "Feature", "id": "SG_2eUhEd8FRRRviqxx5v8tyU_61.194276_-149.897878@1293731153", "properties": {"province": "AK", "website": "www.baileysfurniture.com", "name": "Bailey's Furniture", "city": "Anchorage", "country": "US", "classifiers": [{"category": "Home & Garden", "type": "Retail Goods", "subcategory": "Furniture"}], "phone": "+1 907 563 4083", "href": "http://api.simplegeo.com/1.0/features/SG_2eUhEd8FRRRviqxx5v8tyU_61.194276_-149.897878@1293731153.json", "address": "2809 Arctic Blvd", "owner": "simplegeo", "postcode": "99503"}}
{"geometry": {"type": "Point", "coordinates": [-149.897884, 61.187679]}, "type": "Feature", "id": "SG_7kYfnRpe91Osib9DZgFPkm_61.187679_-149.897884@1293731153", "properties": {"province": "AK", "city": "Anchorage", "name": "American Building Svc", "tags": ["window"], "country": "US", "classifiers": [{"category": "Building & Trades", "type": "Services", "subcategory": "Cleaning & Sanitation"}], "phone": "+1 907 248 5557", "href": "http://api.simplegeo.com/1.0/features/SG_7kYfnRpe91Osib9DZgFPkm_61.187679_-149.897884@1293731153.json", "address": "3705 Arctic Blvd", "owner": "simplegeo", "postcode": "99503"}}
{"geometry": {"type": "Point", "coordinates": [-149.91309, 61.185326]}, "type": "Feature", "id": "SG_5cAIpxAe3dv22gGQ9sLbKb_61.185326_-149.913090@1293731153", "properties": {"province": "AK", "city": "Anchorage", "name": "Royal Suite Lodge", "country": "US", "classifiers": [{"category": "Travel", "type": "Entertainment", "subcategory": "Hotels & Motels"}], "phone": "+1 907 563 3114", "href": "http://api.simplegeo.com/1.0/features/SG_5cAIpxAe3dv22gGQ9sLbKb_61.185326_-149.913090@1293731153.json", "address": "3811 Minnesota Dr", "owner": "simplegeo", "postcode": "99503"}}
{"geometry": {"type": "Point", "coordinates": [-131.683011, 55.352035]}, "type": "Feature", "id": "SG_1YvOuje7ivpS53DqhayAkB_55.352035_-131.683011@1293731153", "properties": {"province": "AK", "city": "Ketchikan", "name": "Mc Graw Custom Construction", "tags": ["house", "general", "contractor"], "country": "US", "classifiers": [{"category": "Building & Trades", "type": "Services", "subcategory": "Construction"}], "phone": "+1 907 225 7901", "href": "http://api.simplegeo.com/1.0/features/SG_1YvOuje7ivpS53DqhayAkB_55.352035_-131.683011@1293731153.json", "address": "2960 Tongass Ave", "owner": "simplegeo", "postcode": "99901"}}
{"geometry": {"type": "Point", "coordinates": [-134.412039, 58.30057]}, "type": "Feature", "id": "SG_5xejzYOfDRcyoVHXqvO2hB_58.300570_-134.412039@1293731153", "properties": {"province": "AK", "city": "Juneau", "name": "Purchasing Dept", "tags": ["state"], "country": "US", "classifiers": [{"category": "Government", "type": "Public Place", "subcategory": "Office"}], "phone": "+1 907 465 2250", "href": "http://api.simplegeo.com/1.0/features/SG_5xejzYOfDRcyoVHXqvO2hB_58.300570_-134.412039@1293731153.json", "address": "333 Willoughby Ave", "owner": "simplegeo", "postcode": "99801"}}
{"geometry": {"type": "Point", "coordinates": [-149.763087, 61.111837]}, "type": "Feature", "id": "SG_1SI8e36fPoMNJ032d0ZuMm_61.111837_-149.763087@1293731153", "properties": {"province": "AK", "city": "Anchorage", "name": "Woods Plumbing & Heating Inc", "tags": ["plumbing", "contractor"], "country": "US", "classifiers": [{"category": "Building & Trades", "type": "Services", "subcategory": "Plumbing"}], "phone": "+1 907 345 7010", "href": "http://api.simplegeo.com/1.0/features/SG_1SI8e36fPoMNJ032d0ZuMm_61.111837_-149.763087@1293731153.json", "address": "11821 Moose Rd", "owner": "simplegeo", "postcode": "99516"}}
{"geometry": {"type": "Point", "coordinates": [-149.890881, 61.217491]}, "type": "Feature", "id": "SG_7b0znfPFJpGGnajzq1UDLS_61.217491_-149.890881@1293731153", "properties": {"province": "AK", "city": "Anchorage", "name": "Moose Creek Trading Post", "tags": ["shop"], "country": "US", "classifiers": [{"category": "Shopping", "type": "Retail Goods", "subcategory": "Gifts & Souvenirs"}], "phone": "+1 907 274 0958", "href": "http://api.simplegeo.com/1.0/features/SG_7b0znfPFJpGGnajzq1UDLS_61.217491_-149.890881@1293731153.json", "address": "436 W 5th Ave", "owner": "simplegeo", "postcode": "99501"}}
{"geometry": {"type": "Point", "coordinates": [-149.382038, 60.135066]}, "type": "Feature", "id": "SG_2NfNWfGi746tel0DGceBFV_60.135066_-149.382038@1293731153", "properties": {"province": "AK", "city": "Seward", "name": "Fjordland Inn", "tags": ["breakfast", "accommodation", "bed"], "country": "US", "classifiers": [{"category": "Travel", "type": "Entertainment", "subcategory": "Hotels & Motels"}], "phone": "+1 907 224 3614", "href": "http://api.simplegeo.com/1.0/features/SG_2NfNWfGi746tel0DGceBFV_60.135066_-149.382038@1293731153.json", "address": "33784 Nash Rd", "owner": "simplegeo", "postcode": "99664"}}
{"geometry": {"type": "Point", "coordinates": [-149.866831, 61.144657]}, "type": "Feature", "id": "SG_3i1oPlbpl0PUN0urA1n2gU_61.144657_-149.866831@1293731153", "properties": {"province": "AK", "city": "Anchorage", "name": "Samson-Dimond Library", "country": "US", "classifiers": [{"category": "Education", "type": "Public Place", "subcategory": "Library"}], "phone": "+1 907 343 4049", "href": "http://api.simplegeo.com/1.0/features/SG_3i1oPlbpl0PUN0urA1n2gU_61.144657_-149.866831@1293731153.json", "address": "800 E Dimond Blvd", "owner": "simplegeo", "postcode": "99515"}}
{"geometry": {"type": "Point", "coordinates": [-149.5713, 61.318147]}, "type": "Feature", "id": "SG_41BnzbQ1bYYijetQTzJk8l_61.318147_-149.571300@1293731153", "properties": {"province": "AK", "city": "Eagle River", "name": "Coldwell Banker Fortune", "country": "US", "classifiers": [{"category": "Real Estate", "type": "Services", "subcategory": "Real Estate Agent"}], "phone": "+1 907 696 7653", "href": "http://api.simplegeo.com/1.0/features/SG_41BnzbQ1bYYijetQTzJk8l_61.318147_-149.571300@1293731153.json", "address": "10928 Eagle River Rd", "owner": "simplegeo", "postcode": "99577"}}
{"geometry": {"type": "Point", "coordinates": [-134.5459, 58.33889]}, "type": "Feature", "id": "SG_4GbUemtV5gkoiBH5l2b1uu_58.338890_-134.545900@1293731153", "properties": {"province": "AK", "city": "Juneau", "name": "Renoir Painting Contractors", "tags": ["hanging", "painter", "contractor"], "country": "US", "classifiers": [{"category": "Building & Trades", "type": "Services", "subcategory": "Construction"}], "phone": "+1 907 586 6790", "href": "http://api.simplegeo.com/1.0/features/SG_4GbUemtV5gkoiBH5l2b1uu_58.338890_-134.545900@1293731153.json", "address": "8393 N Douglas Hwy", "owner": "simplegeo", "postcode": "99801"}}
{"geometry": {"type": "Point", "coordinates": [-134.625791, 58.350724]}, "type": "Feature", "id": "SG_627ctTnFLfd7KugJQVorES_58.350724_-134.625791@1293731153", "properties": {"province": "AK", "city": "Juneau", "name": "Southeast Hd Parts & Repair", "tags": ["scooter", "motorcycle", "motor"], "country": "US", "classifiers": [{"category": "Retail", "type": "Services", "subcategory": "Repair Shop"}], "phone": "+1 907 789 4206", "href": "http://api.simplegeo.com/1.0/features/SG_627ctTnFLfd7KugJQVorES_58.350724_-134.625791@1293731153.json", "address": "10654 Porter Ln", "owner": "simplegeo", "postcode": "99801"}}
{"geometry": {"type": "Point", "coordinates": [-161.764787, 60.795306]}, "type": "Feature", "id": "SG_2fN8rrnmT4Yf36KKHu1NwP_60.795306_-161.764787@1293731153", "properties": {"province": "AK", "city": "Bethel", "name": "Bethel Community Svc Inc", "tags": ["home", "residential"], "country": "US", "classifiers": [{"category": "Social Services", "type": "Services", "subcategory": "Adult Care"}], "phone": "+1 907 543 2242", "href": "http://api.simplegeo.com/1.0/features/SG_2fN8rrnmT4Yf36KKHu1NwP_60.795306_-161.764787@1293731153.json", "address": "381 4th Ave", "owner": "simplegeo", "postcode": "99559"}}
{"geometry": {"type": "Point", "coordinates": [-147.729253, 64.849774]}, "type": "Feature", "id": "SG_7OYUGSJvp51lfg19hbWLD3_64.849774_-147.729253@1293731153", "properties": {"province": "AK", "city": "Fairbanks", "name": "Keith B Gianni MD", "tags": ["physician", "surgeon"], "country": "US", "classifiers": [{"category": "Health Services", "type": "Services", "subcategory": "Doctor"}], "phone": "+1 907 452 6137", "href": "http://api.simplegeo.com/1.0/features/SG_7OYUGSJvp51lfg19hbWLD3_64.849774_-147.729253@1293731153.json", "address": "1222 Well St", "owner": "simplegeo", "postcode": "99701"}}
{"geometry": {"type": "Point", "coordinates": [-152.396967, 57.790966]}, "type": "Feature", "id": "SG_1XFdhsuXKUIRAdRXUO847N_57.790966_-152.396967@1293731153", "properties": {"province": "AK", "city": "Kodiak", "name": "An Island Suite", "tags": ["breakfast", "accommodation", "bed"], "country": "US", "classifiers": [{"category": "Travel", "type": "Entertainment", "subcategory": "Hotels & Motels"}], "phone": "+1 907 486 2205", "href": "http://api.simplegeo.com/1.0/features/SG_1XFdhsuXKUIRAdRXUO847N_57.790966_-152.396967@1293731153.json", "address": "720 E Rezanof Dr", "owner": "simplegeo", "postcode": "99615"}}
{"geometry": {"type": "Point", "coordinates": [-149.890478, 61.168774]}, "type": "Feature", "id": "SG_1N8ApCJAbJxJwxroAWxFDR_61.168774_-149.890478@1293731153", "properties": {"province": "AK", "website": "www.mccionline.com", "name": "Mechanical Construction", "tags": ["plumbing", "contractor"], "country": "US", "classifiers": [{"category": "Building & Trades", "type": "Services", "subcategory": "Plumbing"}], "phone": "+1 907 563 3155", "href": "http://api.simplegeo.com/1.0/features/SG_1N8ApCJAbJxJwxroAWxFDR_61.168774_-149.890478@1293731153.json", "city": "Anchorage", "address": "720 W 58th Ave", "owner": "simplegeo", "postcode": "99518"}}
{"geometry": {"type": "Point", "coordinates": [-149.895632, 61.168772]}, "type": "Feature", "id": "SG_5XSUxHn7d5Y48cX5hl4B7z_61.168772_-149.895632@1293731153", "properties": {"province": "AK", "city": "Anchorage", "name": "Aurora Wildlife Arts", "tags": ["lumber", "taxidermist"], "country": "US", "classifiers": [{"category": "Retail", "type": "Services", "subcategory": "Repair Shop"}, {"category": "Manufacturing", "type": "Manufacturing & Wholesale Goods", "subcategory": "Wood Products"}], "phone": "+1 907 561 2691", "href": "http://api.simplegeo.com/1.0/features/SG_5XSUxHn7d5Y48cX5hl4B7z_61.168772_-149.895632@1293731153.json", "address": "520 W 58th Ave", "owner": "simplegeo", "postcode": "99518"}}
{"geometry": {"type": "Point", "coordinates": [-161.770132, 60.794784]}, "type": "Feature", "id": "SG_39ZqSBKqAtlmREYy8xJyn7_60.794784_-161.770132@1293731153", "properties": {"province": "AK", "city": "Bethel", "name": "Twilight Travel", "tags": ["agency", "bureau"], "country": "US", "classifiers": [{"category": "Travel", "type": "Entertainment", "subcategory": "Travel Agent"}], "phone": "+1 907 543 5990", "href": "http://api.simplegeo.com/1.0/features/SG_39ZqSBKqAtlmREYy8xJyn7_60.794784_-161.770132@1293731153.json", "address": "460 Ridgecrest Dr", "owner": "simplegeo", "postcode": "99559"}}
{"geometry": {"type": "Point", "coordinates": [-147.693753, 64.851056]}, "type": "Feature", "id": "SG_5oIolvuZjBYUbwib1Bm9Dd_64.851056_-147.693753@1293731153", "properties": {"province": "AK", "city": "Fairbanks", "name": "Hide Out Lounge", "tags": ["lounge", "cocktail"], "country": "US", "classifiers": [{"category": "Bars & Pubs", "type": "Food & Drink", "subcategory": ""}], "phone": "+1 907 456 1841", "href": "http://api.simplegeo.com/1.0/features/SG_5oIolvuZjBYUbwib1Bm9Dd_64.851056_-147.693753@1293731153.json", "address": "720 Old Steese Hwy", "owner": "simplegeo", "postcode": "99701"}}
{"geometry": {"type": "Point", "coordinates": [-149.462675, 61.582178]}, "type": "Feature", "id": "SG_0t74qsYDtp0nDOdBfZTHTm_61.582178_-149.462675@1293731153", "properties": {"province": "AK", "city": "Wasilla", "name": "D & A Shop Rite", "tags": ["grocer"], "country": "US", "classifiers": [{"category": "Food & Beverages", "type": "Retail Goods", "subcategory": "Groceries & Convenience Stores"}], "phone": "+1 907 376 5262", "href": "http://api.simplegeo.com/1.0/features/SG_0t74qsYDtp0nDOdBfZTHTm_61.582178_-149.462675@1293731153.json", "address": "503 W Parks Hwy", "owner": "simplegeo", "postcode": "99654"}}
{"geometry": {"type": "Point", "coordinates": [-149.58009, 61.330454]}, "type": "Feature", "id": "SG_3l6tpVrpr6xsxMOVHSkpqS_61.330454_-149.580090@1293731153", "properties": {"province": "AK", "city": "Eagle River", "name": "MRW Automotive", "tags": ["repairing", "automobile"], "country": "US", "classifiers": [{"category": "Retail", "type": "Services", "subcategory": "Auto Repair"}], "phone": "+1 907 694 8324", "href": "http://api.simplegeo.com/1.0/features/SG_3l6tpVrpr6xsxMOVHSkpqS_61.330454_-149.580090@1293731153.json", "address": "16709 Farm Ave", "owner": "simplegeo", "postcode": "99577"}}
{"geometry": {"type": "Point", "coordinates": [-149.834538, 61.183078]}, "type": "Feature", "id": "SG_4nhuCiW9WK2SVn9UpxwIuZ_61.183078_-149.834538@1293731153", "properties": {"province": "AK", "city": "Anchorage", "name": "Back Pain Ctr", "tags": ["therapist", "physical"], "country": "US", "classifiers": [{"category": "Health Services", "type": "Services", "subcategory": "Health Practitioner"}], "phone": "+1 907 561 1711", "href": "http://api.simplegeo.com/1.0/features/SG_4nhuCiW9WK2SVn9UpxwIuZ_61.183078_-149.834538@1293731153.json", "address": "4048 Laurel St", "owner": "simplegeo", "postcode": "99508"}}
{"geometry": {"type": "Point", "coordinates": [-149.830146, 61.209742]}, "type": "Feature", "id": "SG_25YQ5q1LSlSmbWRiEskt7C_61.209742_-149.830146@1293731153", "properties": {"province": "AK", "city": "Anchorage", "name": "Norman Wilder MD", "tags": ["physician", "surgeon"], "country": "US", "classifiers": [{"category": "Health Services", "type": "Services", "subcategory": "Doctor"}], "phone": "+1 907 264 1166", "href": "http://api.simplegeo.com/1.0/features/SG_25YQ5q1LSlSmbWRiEskt7C_61.209742_-149.830146@1293731153.json", "address": "2801 Debarr Rd", "owner": "simplegeo", "postcode": "99508"}}
{"geometry": {"type": "Point", "coordinates": [-149.89545, 61.213689]}, "type": "Feature", "id": "SG_3uTzpRNaZv1xGy60xzNJpr_61.213689_-149.895450@1293731153", "properties": {"province": "AK", "city": "Anchorage", "name": "Trailside Discovery Camp", "tags": ["environmental", "org"], "country": "US", "classifiers": [{"category": "Organizations", "type": "Services", "subcategory": "Community Association"}], "phone": "+1 907 274 5437", "href": "http://api.simplegeo.com/1.0/features/SG_3uTzpRNaZv1xGy60xzNJpr_61.213689_-149.895450@1293731153.json", "address": "807 G St", "owner": "simplegeo", "postcode": "99501"}}
{"geometry": {"type": "Point", "coordinates": [-134.507297, 58.356217]}, "type": "Feature", "id": "SG_1WYGXPX87x5eTPDUV7w8SJ_58.356217_-134.507297@1293731153", "properties": {"province": "AK", "city": "Juneau", "name": "Duran Construction Co", "tags": ["general", "contractor"], "country": "US", "classifiers": [{"category": "Building & Trades", "type": "Services", "subcategory": "Construction"}], "phone": "+1 907 780 6161", "href": "http://api.simplegeo.com/1.0/features/SG_1WYGXPX87x5eTPDUV7w8SJ_58.356217_-134.507297@1293731153.json", "address": "6225 Alaway Ave", "owner": "simplegeo", "postcode": "99801"}}
{"geometry": {"type": "Point", "coordinates": [-131.532389, 55.302249]}, "type": "Feature", "id": "SG_5b72cUZLMAgvN0XeScCMhP_55.302249_-131.532389@1293731153", "properties": {"province": "AK", "city": "Ketchikan", "name": "A 1 Towing & Recovery", "tags": ["wrecker"], "country": "US", "classifiers": [{"category": "Retail", "type": "Services", "subcategory": "Auto Repair"}], "phone": "+1 907 247 6633", "href": "http://api.simplegeo.com/1.0/features/SG_5b72cUZLMAgvN0XeScCMhP_55.302249_-131.532389@1293731153.json", "address": "6633 Roosevelt Dr", "owner": "simplegeo", "postcode": "99901"}}
{"geometry": {"type": "Point", "coordinates": [-134.54389, 58.338579]}, "type": "Feature", "id": "SG_0p4B9e6J9zsoMjYTpsqwed_58.338579_-134.543890@1293731153", "properties": {"province": "AK", "city": "Juneau", "name": "Martin Construction Inc", "tags": ["home", "blasting", "drilling", "family", "new"], "country": "US", "classifiers": [{"category": "Building & Trades", "type": "Services", "subcategory": "Construction"}], "phone": "+1 907 586 1884", "href": "http://api.simplegeo.com/1.0/features/SG_0p4B9e6J9zsoMjYTpsqwed_58.338579_-134.543890@1293731153.json", "address": "8529 N Douglas Hwy", "owner": "simplegeo", "postcode": "99801"}}
{"geometry": {"type": "Point", "coordinates": [-149.849705, 61.191901]}, "type": "Feature", "id": "SG_3f3x2ef2h0sOIV2PvdVChY_61.191901_-149.849705@1293731153", "properties": {"province": "AK", "city": "Anchorage", "name": "Hunter Electric", "tags": ["electrical", "contractor"], "country": "US", "classifiers": [{"category": "Building & Trades", "type": "Services", "subcategory": "Electrical"}], "phone": "+1 907 272 3006", "href": "http://api.simplegeo.com/1.0/features/SG_3f3x2ef2h0sOIV2PvdVChY_61.191901_-149.849705@1293731153.json", "address": "2901 Madison Way", "owner": "simplegeo", "postcode": "99508"}}
{"geometry": {"type": "Point", "coordinates": [-149.938229, 61.180226]}, "type": "Feature", "id": "SG_03ANr6273mYBbaukbZhc3i_61.180226_-149.938229@1293731153", "properties": {"province": "AK", "city": "Anchorage", "name": "T P Mahaney Contractor", "tags": ["carpentry", "contractor"], "country": "US", "classifiers": [{"category": "Building & Trades", "type": "Services", "subcategory": "Construction"}], "phone": "+1 907 227 1581", "href": "http://api.simplegeo.com/1.0/features/SG_03ANr6273mYBbaukbZhc3i_61.180226_-149.938229@1293731153.json", "address": "4510 Spenard Rd", "owner": "simplegeo", "postcode": "99517"}}
{"geometry": {"type": "Point", "coordinates": [-151.545092, 59.651674]}, "type": "Feature", "id": "SG_6BqOefDLeKdwB2IGSoqJIg_59.651674_-151.545092@1293731153", "properties": {"province": "AK", "city": "Homer", "name": "Homer Web Designs", "tags": ["home", "consulting", "page", "dev", "internet"], "country": "US", "classifiers": [{"category": "Professional", "type": "Services", "subcategory": "Computer Services"}], "phone": "+1 907 235 4832", "href": "http://api.simplegeo.com/1.0/features/SG_6BqOefDLeKdwB2IGSoqJIg_59.651674_-151.545092@1293731153.json", "address": "184 W Cityview Ave", "owner": "simplegeo", "postcode": "99603"}}
{"geometry": {"type": "Point", "coordinates": [-134.48296, 58.357712]}, "type": "Feature", "id": "SG_49ItvQwepO0tk16PwOrrWI_58.357712_-134.482960@1293731153", "properties": {"province": "AK", "city": "Juneau", "name": "Prindles Carpet & Upholstery", "tags": ["cleaners", "rug", "carpet"], "country": "US", "classifiers": [{"category": "Retail", "type": "Services", "subcategory": "Laundry & Dry Cleaning"}], "phone": "+1 907 796 3478", "href": "http://api.simplegeo.com/1.0/features/SG_49ItvQwepO0tk16PwOrrWI_58.357712_-134.482960@1293731153.json", "address": "5312 Commercial Blvd", "owner": "simplegeo", "postcode": "99801"}}
{"geometry": {"type": "Point", "coordinates": [-147.518049, 64.825991]}, "type": "Feature", "id": "SG_3BbgpIBdRE9NVSS6BZ8ozJ_64.825991_-147.518049@1293731153", "properties": {"province": "AK", "city": "North Pole", "name": "Hardy Enterprises", "tags": ["general", "contractor"], "country": "US", "classifiers": [{"category": "Building & Trades", "type": "Services", "subcategory": "Construction"}], "phone": "+1 907 488 8298", "href": "http://api.simplegeo.com/1.0/features/SG_3BbgpIBdRE9NVSS6BZ8ozJ_64.825991_-147.518049@1293731153.json", "address": "1252 Range View Rd", "owner": "simplegeo", "postcode": "99705"}}
{"geometry": {"type": "Point", "coordinates": [-134.584505, 58.363112]}, "type": "Feature", "id": "SG_2q85onRivo0PwTKiTf2QfX_58.363112_-134.584505@1293731153", "properties": {"province": "AK", "city": "Juneau", "name": "His & Hers Salon", "country": "US", "classifiers": [{"category": "Personal", "type": "Services", "subcategory": "Beauty Salon"}], "phone": "+1 907 789 7100", "href": "http://api.simplegeo.com/1.0/features/SG_2q85onRivo0PwTKiTf2QfX_58.363112_-134.584505@1293731153.json", "address": "9200 Glacier Hwy", "owner": "simplegeo", "postcode": "99801"}}
{"geometry": {"type": "Point", "coordinates": [-149.901867, 61.202441]}, "type": "Feature", "id": "SG_16uNxz2cd6ZnZP8tThjeZA_61.202441_-149.901867@1293731153", "properties": {"province": "AK", "city": "Anchorage", "name": "Airport Bed & Breakfast", "tags": ["breakfast", "accommodation", "bed"], "country": "US", "classifiers": [{"category": "Travel", "type": "Entertainment", "subcategory": "Hotels & Motels"}], "phone": "+1 907 243 6050", "href": "http://api.simplegeo.com/1.0/features/SG_16uNxz2cd6ZnZP8tThjeZA_61.202441_-149.901867@1293731153.json", "address": "1901 K St", "owner": "simplegeo", "postcode": "99503"}}
{"geometry": {"type": "Point", "coordinates": [-147.566167, 64.917857]}, "type": "Feature", "id": "SG_4ZKNwFJr6udoyET2n9j1pp_64.917857_-147.566167@1293731153", "properties": {"province": "AK", "city": "Fairbanks", "name": "Golden Enterprises", "tags": ["herb"], "country": "US", "classifiers": [{"category": "Food & Beverages", "type": "Retail Goods", "subcategory": "Specialty"}], "phone": "+1 907 457 6380", "href": "http://api.simplegeo.com/1.0/features/SG_4ZKNwFJr6udoyET2n9j1pp_64.917857_-147.566167@1293731153.json", "address": "1280 Gilmore Trl", "owner": "simplegeo", "postcode": "99712"}}
{"geometry": {"type": "Point", "coordinates": [-151.236597, 60.559839]}, "type": "Feature", "id": "SG_37Q7hJx5LqQw7OR1P9lP6F_60.559839_-151.236597@1293731153", "properties": {"province": "AK", "city": "Kenai", "name": "Medi Center", "tags": ["clinic"], "country": "US", "classifiers": [{"category": "Health Services", "type": "Services", "subcategory": "Doctor"}], "phone": "+1 907 283 9118", "href": "http://api.simplegeo.com/1.0/features/SG_37Q7hJx5LqQw7OR1P9lP6F_60.559839_-151.236597@1293731153.json", "address": "10543 Kenai Spur Hwy", "owner": "simplegeo", "postcode": "99611"}}
{"geometry": {"type": "Point", "coordinates": [-149.462487, 61.582209]}, "type": "Feature", "id": "SG_3HA9pYjrqgEZBJsJmLABpB_61.582209_-149.462487@1293731153", "properties": {"province": "AK", "city": "Wasilla", "name": "Nenana City School District", "country": "US", "classifiers": [{"category": "Education", "type": "Public Place", "subcategory": "School"}], "phone": "+1 907 357 7734", "href": "http://api.simplegeo.com/1.0/features/SG_3HA9pYjrqgEZBJsJmLABpB_61.582209_-149.462487@1293731153.json", "address": "515 W Parks Hwy", "owner": "simplegeo", "postcode": "99654"}}
{"geometry": {"type": "Point", "coordinates": [-149.961073, 61.155769]}, "type": "Feature", "id": "SG_6bg0Txb3tJrJ0OTQeNIPht_61.155769_-149.961073@1293731153", "properties": {"province": "AK", "city": "Anchorage", "name": "A & G Towing", "tags": ["wrecker"], "country": "US", "classifiers": [{"category": "Retail", "type": "Services", "subcategory": "Auto Repair"}], "phone": "+1 907 277 0041", "href": "http://api.simplegeo.com/1.0/features/SG_6bg0Txb3tJrJ0OTQeNIPht_61.155769_-149.961073@1293731153.json", "address": "6917 Crawford St", "owner": "simplegeo", "postcode": "99502"}}
{"geometry": {"type": "Point", "coordinates": [-147.724356, 64.859154]}, "type": "Feature", "id": "SG_7UNkSFNhoXAqnwa5rfYu9l_64.859154_-147.724356@1293731153", "properties": {"province": "AK", "city": "Fairbanks", "name": "College Collision", "tags": ["body", "automobile", "painting"], "country": "US", "classifiers": [{"category": "Retail", "type": "Services", "subcategory": "Auto Repair"}], "phone": "+1 907 457 8087", "href": "http://api.simplegeo.com/1.0/features/SG_7UNkSFNhoXAqnwa5rfYu9l_64.859154_-147.724356@1293731153.json", "address": "810 College Rd", "owner": "simplegeo", "postcode": "99701"}}
{"geometry": {"type": "Point", "coordinates": [-135.333533, 57.052904]}, "type": "Feature", "id": "SG_1YHO7yD6hNEBIGN9i4u6Zi_57.052904_-135.333533@1293731153", "properties": {"province": "AK", "city": "Sitka", "name": "Sitka Business Resource Ctr", "country": "US", "classifiers": [{"category": "Professional", "type": "Services", "subcategory": "Business Services"}], "phone": "+1 907 966 3301", "href": "http://api.simplegeo.com/1.0/features/SG_1YHO7yD6hNEBIGN9i4u6Zi_57.052904_-135.333533@1293731153.json", "address": "212 Lake St", "owner": "simplegeo", "postcode": "99835"}}
{"geometry": {"type": "Point", "coordinates": [-149.91084, 61.191163]}, "type": "Feature", "id": "SG_2OAKJKk1o7NkwY08AbaWER_61.191163_-149.910840@1293731153", "properties": {"province": "AK", "city": "Anchorage", "name": "Advanced Excavation Svc", "tags": ["excavating", "contractor"], "country": "US", "classifiers": [{"category": "Building & Trades", "type": "Services", "subcategory": "Construction"}], "phone": "+1 907 337 4218", "href": "http://api.simplegeo.com/1.0/features/SG_2OAKJKk1o7NkwY08AbaWER_61.191163_-149.910840@1293731153.json", "address": "1410 W 32nd Ave", "owner": "simplegeo", "postcode": "99503"}}
{"geometry": {"type": "Point", "coordinates": [-147.402017, 64.887497]}, "type": "Feature", "id": "SG_2VIRmfyohJ2hhXc8FOxCa4_64.887497_-147.402017@1293731153", "properties": {"province": "AK", "city": "Fairbanks", "name": "Hopper Creek Snowplowing", "tags": ["snow", "removal"], "country": "US", "classifiers": [{"category": "Building & Trades", "type": "Services", "subcategory": "Cleaning & Sanitation"}], "phone": "+1 907 488 0225", "href": "http://api.simplegeo.com/1.0/features/SG_2VIRmfyohJ2hhXc8FOxCa4_64.887497_-147.402017@1293731153.json", "address": "630 Tanglewood Rd", "owner": "simplegeo", "postcode": "99712"}}
{"geometry": {"type": "Point", "coordinates": [-149.807674, 61.147902]}, "type": "Feature", "id": "SG_0dNQed6GomEcaZtzg2Ti7s_61.147902_-149.807674@1293731153", "properties": {"province": "AK", "city": "Anchorage", "name": "Bear Paw Productions", "tags": ["pattern", "book", "quilt", "mfg"], "country": "US", "classifiers": [{"category": "Shopping", "type": "Retail Goods", "subcategory": "Crafts & Fabrics"}], "phone": "+1 907 349 7873", "href": "http://api.simplegeo.com/1.0/features/SG_0dNQed6GomEcaZtzg2Ti7s_61.147902_-149.807674@1293731153.json", "address": "4015 Iona Cir", "owner": "simplegeo", "postcode": "99507"}}
{"geometry": {"type": "Point", "coordinates": [-147.734517, 64.840985]}, "type": "Feature", "id": "SG_4xn7u8SZflrp5IquLr1iQK_64.840985_-147.734517@1293731153", "properties": {"province": "AK", "city": "Fairbanks", "name": "Sunshine Sewing Svc", "tags": ["sewing", "contractor"], "country": "US", "classifiers": [{"category": "Manufacturing", "type": "Manufacturing & Wholesale Goods", "subcategory": "Apparel"}], "phone": "+1 907 456 4992", "href": "http://api.simplegeo.com/1.0/features/SG_4xn7u8SZflrp5IquLr1iQK_64.840985_-147.734517@1293731153.json", "address": "944 Cowles St", "owner": "simplegeo", "postcode": "99701"}}
{"geometry": {"type": "Point", "coordinates": [-131.809343, 55.445264]}, "type": "Feature", "id": "SG_5lAU4WNyxKZfsOyoN44SWL_55.445264_-131.809343@1293731153", "properties": {"province": "AK", "city": "Ketchikan", "name": "Diversified Diving Svc", "tags": ["designer", "marine", "contractor"], "country": "US", "classifiers": [{"category": "Building & Trades", "type": "Services", "subcategory": "Construction"}], "phone": "+1 907 247 3483", "href": "http://api.simplegeo.com/1.0/features/SG_5lAU4WNyxKZfsOyoN44SWL_55.445264_-131.809343@1293731153.json", "address": "12034 N Tongass Hwy", "owner": "simplegeo", "postcode": "99901"}}
{"geometry": {"type": "Point", "coordinates": [-151.375047, 60.711891]}, "type": "Feature", "id": "SG_5ueu5BPJnhSqm9ISITcXc9_60.711891_-151.375047@1293731153", "properties": {"province": "AK", "city": "Kenai", "name": "G & J Refrigeration", "tags": ["refrigerating"], "country": "US", "classifiers": [{"category": "Wholesale", "type": "Manufacturing & Wholesale Goods", "subcategory": "Hardware"}], "phone": "+1 907 776 5284", "href": "http://api.simplegeo.com/1.0/features/SG_5ueu5BPJnhSqm9ISITcXc9_60.711891_-151.375047@1293731153.json", "address": "54716 McKinley Ave", "owner": "simplegeo", "postcode": "99611"}}
{"geometry": {"type": "Point", "coordinates": [-134.492148, 58.354868]}, "type": "Feature", "id": "SG_0ZVmHEA9XhyDcZ2mjnUdFq_58.354868_-134.492148@1293731153", "properties": {"province": "AK", "city": "Juneau", "name": "Counterfitters Inc", "tags": ["top", "counter"], "country": "US", "classifiers": [{"category": "Home & Garden", "type": "Retail Goods", "subcategory": "Furniture"}], "phone": "+1 907 780 4363", "href": "http://api.simplegeo.com/1.0/features/SG_0ZVmHEA9XhyDcZ2mjnUdFq_58.354868_-134.492148@1293731153.json", "address": "5441 Glacier Hwy", "owner": "simplegeo", "postcode": "99801"}}
{"geometry": {"type": "Point", "coordinates": [-151.062806, 60.489337]}, "type": "Feature", "id": "SG_3uxNeoas99159Dhn0urPvG_60.489337_-151.062806@1293731153", "properties": {"province": "AK", "city": "Soldotna", "name": "A Misty Memory", "tags": ["album", "scrapbook"], "country": "US", "classifiers": [{"category": "Shopping", "type": "Retail Goods", "subcategory": "Stationery & Office Supplies"}], "phone": "+1 907 260 3100", "href": "http://api.simplegeo.com/1.0/features/SG_3uxNeoas99159Dhn0urPvG_60.489337_-151.062806@1293731153.json", "address": "35105 Kenai Spur Hwy", "owner": "simplegeo", "postcode": "99669"}}
{"geometry": {"type": "Point", "coordinates": [-151.531807, 59.647482]}, "type": "Feature", "id": "SG_1e1jcVg9ys8pUS5TRN27Vy_59.647482_-151.531807@1293731153", "properties": {"province": "AK", "city": "Homer", "name": "Blackberry Bog", "tags": ["shop"], "country": "US", "classifiers": [{"category": "Shopping", "type": "Retail Goods", "subcategory": "Gifts & Souvenirs"}], "phone": "+1 907 235 5668", "href": "http://api.simplegeo.com/1.0/features/SG_1e1jcVg9ys8pUS5TRN27Vy_59.647482_-151.531807@1293731153.json", "address": "564 E Pioneer Ave", "owner": "simplegeo", "postcode": "99603"}}
{"geometry": {"type": "Point", "coordinates": [-147.722486, 64.817157]}, "type": "Feature", "id": "SG_7BNt8O5pfg4iDcd9I0Ra8G_64.817157_-147.722486@1293731153", "properties": {"province": "AK", "city": "Fairbanks", "name": "Alyeska Pipeline Svc Co", "tags": ["pipe", "line", "company"], "country": "US", "classifiers": [{"category": "Wholesale", "type": "Manufacturing & Wholesale Goods", "subcategory": "Petroleum"}], "phone": "+1 907 787 8777", "href": "http://api.simplegeo.com/1.0/features/SG_7BNt8O5pfg4iDcd9I0Ra8G_64.817157_-147.722486@1293731153.json", "address": "701 Bidwill Ave", "owner": "simplegeo", "postcode": "99701"}}
{"geometry": {"type": "Point", "coordinates": [-147.843969, 64.812771]}, "type": "Feature", "id": "SG_4EIhDUk0TnNIoKw3YVKcL9_64.812771_-147.843969@1293731153", "properties": {"province": "AK", "city": "Fairbanks", "name": "Tanana Air Svc", "tags": ["aircraft", "leasing", "charter"], "country": "US", "classifiers": [{"category": "Building & Trades", "type": "Services", "subcategory": "Equipment Rental"}], "phone": "+1 907 474 0301", "href": "http://api.simplegeo.com/1.0/features/SG_4EIhDUk0TnNIoKw3YVKcL9_64.812771_-147.843969@1293731153.json", "address": "3730 University Ave S", "owner": "simplegeo", "postcode": "99709"}}
{"geometry": {"type": "Point", "coordinates": [-149.759789, 61.195348]}, "type": "Feature", "id": "SG_6zpn9LPWxMp7Ll3S0FNxK1_61.195348_-149.759789@1293731153", "properties": {"province": "AK", "website": "www.fafc.org", "name": "KAFC", "tags": ["company", "broadcasting"], "country": "US", "classifiers": [{"category": "Communications", "type": "Services", "subcategory": "Radio Station"}], "phone": "+1 907 222 4826", "href": "http://api.simplegeo.com/1.0/features/SG_6zpn9LPWxMp7Ll3S0FNxK1_61.195348_-149.759789@1293731153.json", "city": "Anchorage", "address": "6401 E Northern Lights Blvd", "owner": "simplegeo", "postcode": "99504"}}
{"geometry": {"type": "Point", "coordinates": [-149.426598, 61.584131]}, "type": "Feature", "id": "SG_24Yu8tPOKWXe9sW0uj9v9T_61.584131_-149.426598@1293731153", "properties": {"province": "AK", "city": "Wasilla", "name": "Alaska USA Mortgage Co", "tags": ["loan", "real estate"], "country": "US", "classifiers": [{"category": "Banks & Credit Unions", "type": "Services", "subcategory": "Bank"}], "phone": "+1 907 376 2694", "href": "http://api.simplegeo.com/1.0/features/SG_24Yu8tPOKWXe9sW0uj9v9T_61.584131_-149.426598@1293731153.json", "address": "851 E Usa Cir", "owner": "simplegeo", "postcode": "99654"}}
{"geometry": {"type": "Point", "coordinates": [-135.44482, 59.236526]}, "type": "Feature", "id": "SG_6NimmupVZvdwQueIvJtHtM_59.236526_-135.444820@1293731153", "properties": {"province": "AK", "website": "www.capchoice.com", "name": "Captain's Choice Motel", "city": "Haines", "country": "US", "classifiers": [{"category": "Travel", "type": "Entertainment", "subcategory": "Hotels & Motels"}], "phone": "+1 907 766 3111", "href": "http://api.simplegeo.com/1.0/features/SG_6NimmupVZvdwQueIvJtHtM_59.236526_-135.444820@1293731153.json", "address": "108 2nd Ave", "owner": "simplegeo", "postcode": "99827"}}
{"geometry": {"type": "Point", "coordinates": [-149.863864, 61.11305]}, "type": "Feature", "id": "SG_12HyPEIMirGVoOLJlpWxRs_61.113050_-149.863864@1293731153", "properties": {"province": "AK", "city": "Anchorage", "name": "International Bridge Corp", "country": "US", "classifiers": [{"category": "Building & Trades", "type": "Services", "subcategory": "Construction"}], "phone": "+1 907 336 4422", "href": "http://api.simplegeo.com/1.0/features/SG_12HyPEIMirGVoOLJlpWxRs_61.113050_-149.863864@1293731153.json", "address": "12050 Industry Way", "owner": "simplegeo", "postcode": "99515"}}
{"geometry": {"type": "Point", "coordinates": [-151.185799, 60.56151]}, "type": "Feature", "id": "SG_1bPzziTxuI5BM0ThfdIWNc_60.561510_-151.185799@1293731153", "properties": {"province": "AK", "city": "Kenai", "name": "Nordic Log Homes", "tags": ["prefabricated", "wood", "mfg"], "country": "US", "classifiers": [{"category": "Manufacturing", "type": "Manufacturing & Wholesale Goods", "subcategory": "Buildings"}], "phone": "+1 907 283 6535", "href": "http://api.simplegeo.com/1.0/features/SG_1bPzziTxuI5BM0ThfdIWNc_60.561510_-151.185799@1293731153.json", "address": "102 Highbush Ln", "owner": "simplegeo", "postcode": "99611"}}
{"geometry": {"type": "Point", "coordinates": [-131.6373, 55.343261]}, "type": "Feature", "id": "SG_0jVyiYTvIsm7CMb9hg1YBy_55.343261_-131.637300@1293731153", "properties": {"province": "AK", "city": "Ketchikan", "name": "Ketchikan Homeless Shelter", "tags": ["organization", "welfare"], "country": "US", "classifiers": [{"category": "Social Services", "type": "Services", "subcategory": ""}], "phone": "+1 907 225 4194", "href": "http://api.simplegeo.com/1.0/features/SG_0jVyiYTvIsm7CMb9hg1YBy_55.343261_-131.637300@1293731153.json", "address": "628 Park Ave", "owner": "simplegeo", "postcode": "99901"}}
{"geometry": {"type": "Point", "coordinates": [-149.738374, 61.195361]}, "type": "Feature", "id": "SG_1Gmk21AfTsRdKbQuVFSkIH_61.195361_-149.738374@1293731153", "properties": {"province": "AK", "city": "Anchorage", "name": "Sell 4 Free Real Estate Value", "country": "US", "classifiers": [{"category": "Real Estate", "type": "Services", "subcategory": "Real Estate Agent"}], "phone": "+1 907 561 3733", "href": "http://api.simplegeo.com/1.0/features/SG_1Gmk21AfTsRdKbQuVFSkIH_61.195361_-149.738374@1293731153.json", "address": "7731 E Northern Lights Blvd", "owner": "simplegeo", "postcode": "99504"}}
{"geometry": {"type": "Point", "coordinates": [-149.441363, 60.102758]}, "type": "Feature", "id": "SG_60c7TtXI44e6dkTZ7Tp0ph_60.102758_-149.441363@1293731153", "properties": {"province": "AK", "city": "Seward", "name": "Liberty Theatre", "country": "US", "classifiers": [{"category": "Cinema", "type": "Entertainment", "subcategory": "Movie Theater"}], "phone": "+1 907 224 5418", "href": "http://api.simplegeo.com/1.0/features/SG_60c7TtXI44e6dkTZ7Tp0ph_60.102758_-149.441363@1293731153.json", "address": "305 Adams St", "owner": "simplegeo", "postcode": "99664"}}
{"geometry": {"type": "Point", "coordinates": [-135.339296, 57.049185]}, "type": "Feature", "id": "SG_73ZW0EuM6febTyL1nI2vfu_57.049185_-135.339296@1293731153", "properties": {"province": "AK", "city": "Sitka", "name": "Acupuncture & Oriental Med", "tags": ["clinic"], "country": "US", "classifiers": [{"category": "Health Services", "type": "Services", "subcategory": "Doctor"}], "phone": "+1 907 747 6915", "href": "http://api.simplegeo.com/1.0/features/SG_73ZW0EuM6febTyL1nI2vfu_57.049185_-135.339296@1293731153.json", "address": "114 Lincoln St", "owner": "simplegeo", "postcode": "99835"}}
{"geometry": {"type": "Point", "coordinates": [-147.733359, 64.84179]}, "type": "Feature", "id": "SG_1NJkWPZ6MmPAFk5tXEl8iP_64.841790_-147.733359@1293731153", "properties": {"province": "AK", "city": "Fairbanks", "name": "Commercial Refrigeration Spec", "tags": ["refrigerating"], "country": "US", "classifiers": [{"category": "Wholesale", "type": "Manufacturing & Wholesale Goods", "subcategory": "Hardware"}], "phone": "+1 907 451 6896", "href": "http://api.simplegeo.com/1.0/features/SG_1NJkWPZ6MmPAFk5tXEl8iP_64.841790_-147.733359@1293731153.json", "address": "917 8th Ave", "owner": "simplegeo", "postcode": "99701"}}
{"geometry": {"type": "Point", "coordinates": [-147.708488, 64.85191]}, "type": "Feature", "id": "SG_0LT8RUZkLViMLrA8ZKHyHf_64.851910_-147.708488@1293731153", "properties": {"province": "AK", "city": "Fairbanks", "name": "Regency Court Office", "tags": ["mall", "shopping", "center"], "country": "US", "classifiers": [{"category": "Real Estate", "type": "Services", "subcategory": "Real Estate Operator"}], "phone": "+1 907 452 4992", "href": "http://api.simplegeo.com/1.0/features/SG_0LT8RUZkLViMLrA8ZKHyHf_64.851910_-147.708488@1293731153.json", "address": "59 College Rd", "owner": "simplegeo", "postcode": "99701"}}
{"geometry": {"type": "Point", "coordinates": [-152.446425, 57.779538]}, "type": "Feature", "id": "SG_1s7oMKLZtSIh0STVFrXzLm_57.779538_-152.446425@1293731153", "properties": {"province": "AK", "website": "www.kodiakfishmealcompany.com", "name": "Kodiak Fishmeal Company", "tags": ["feed", "mfg", "exporter", "prepared"], "country": "US", "classifiers": [{"category": "Professional", "type": "Services", "subcategory": "Management & Consulting"}, {"category": "Wholesale", "type": "Manufacturing & Wholesale Goods", "subcategory": "Durable Goods & Equipment"}], "phone": "+1 907 486 3171", "href": "http://api.simplegeo.com/1.0/features/SG_1s7oMKLZtSIh0STVFrXzLm_57.779538_-152.446425@1293731153.json", "city": "Kodiak", "address": "915 Gibson Cove Rd", "owner": "simplegeo", "postcode": "99615"}}
{"geometry": {"type": "Point", "coordinates": [-149.797553, 61.143037]}, "type": "Feature", "id": "SG_4NIEQITwTYniy3ah34G4G0_61.143037_-149.797553@1293731153", "properties": {"province": "AK", "city": "Anchorage", "name": "J L Stonebraker & Assoc", "tags": ["general", "contractor"], "country": "US", "classifiers": [{"category": "Professional", "type": "Services", "subcategory": "Engineering"}], "phone": "+1 907 346 1645", "href": "http://api.simplegeo.com/1.0/features/SG_4NIEQITwTYniy3ah34G4G0_61.143037_-149.797553@1293731153.json", "address": "8520 Jupiter Dr", "owner": "simplegeo", "postcode": "99507"}}
{"geometry": {"type": "Point", "coordinates": [-149.834357, 61.098995]}, "type": "Feature", "id": "SG_5YhxDK3nvGMrAn5lJBS6vW_61.098995_-149.834357@1293731153", "properties": {"province": "AK", "city": "Anchorage", "name": "To The Point Communication", "tags": ["counselor", "public", "relations"], "country": "US", "classifiers": [{"category": "Professional", "type": "Services", "subcategory": "Management & Consulting"}], "phone": "+1 907 345 4230", "href": "http://api.simplegeo.com/1.0/features/SG_5YhxDK3nvGMrAn5lJBS6vW_61.098995_-149.834357@1293731153.json", "address": "2410 Tradewind Dr", "owner": "simplegeo", "postcode": "99516"}}
{"geometry": {"type": "Point", "coordinates": [-149.409608, 61.577028]}, "type": "Feature", "id": "SG_6PoB414TkSXq7WPGZnWXj1_61.577028_-149.409608@1293731153", "properties": {"province": "AK", "city": "Wasilla", "name": "Alaska Eye Care Ctr", "country": "US", "classifiers": [{"category": "Health Services", "type": "Services", "subcategory": "Optometrist"}], "phone": "+1 907 376 5266", "href": "http://api.simplegeo.com/1.0/features/SG_6PoB414TkSXq7WPGZnWXj1_61.577028_-149.409608@1293731153.json", "address": "1700 E Parks Hwy", "owner": "simplegeo", "postcode": "99654"}}
{"geometry": {"type": "Point", "coordinates": [-149.897492, 61.214716]}, "type": "Feature", "id": "SG_5zUZP7x42mijbbGF0jzidR_61.214716_-149.897492@1293731153", "properties": {"province": "AK", "city": "Anchorage", "name": "TKCC-Nhti JV II", "tags": ["commercial"], "country": "US", "classifiers": [{"category": "Building & Trades", "type": "Services", "subcategory": "Construction"}], "phone": "+1 907 565 7666", "href": "http://api.simplegeo.com/1.0/features/SG_5zUZP7x42mijbbGF0jzidR_61.214716_-149.897492@1293731153.json", "address": "711 H St", "owner": "simplegeo", "postcode": "99501"}}
{"geometry": {"type": "Point", "coordinates": [-150.985105, 60.499554]}, "type": "Feature", "id": "SG_42ta8YnlgJcZTlr8aPw0as_60.499554_-150.985105@1293731153", "properties": {"province": "AK", "city": "Soldotna", "name": "Cookie's Tender Care", "tags": ["home"], "country": "US", "classifiers": [{"category": "Health Services", "type": "Services", "subcategory": "Clinic"}], "phone": "+1 907 262 6401", "href": "http://api.simplegeo.com/1.0/features/SG_42ta8YnlgJcZTlr8aPw0as_60.499554_-150.985105@1293731153.json", "address": "41524 Grove Ave", "owner": "simplegeo", "postcode": "99669"}}
{"geometry": {"type": "Point", "coordinates": [-149.43864, 61.583019]}, "type": "Feature", "id": "SG_0Zdk569ERsA8smahsE0nut_61.583019_-149.438640@1293731153", "properties": {"province": "AK", "city": "Wasilla", "name": "Portamedic", "tags": ["examination", "insurance"], "country": "US", "classifiers": [{"category": "Health Services", "type": "Services", "subcategory": "Clinic"}], "phone": "+1 907 357 3966", "href": "http://api.simplegeo.com/1.0/features/SG_0Zdk569ERsA8smahsE0nut_61.583019_-149.438640@1293731153.json", "address": "500 E Swanson Ave", "owner": "simplegeo", "postcode": "99654"}}
{"geometry": {"type": "Point", "coordinates": [-149.938161, 61.197062]}, "type": "Feature", "id": "SG_1bTsUWTazuzMXafreiGOGL_61.197062_-149.938161@1293731153", "properties": {"province": "AK", "city": "Anchorage", "name": "Talbot & Assoc", "tags": ["consultant", "business"], "country": "US", "classifiers": [{"category": "Professional", "type": "Services", "subcategory": "Management & Consulting"}], "phone": "+1 907 644 8777", "href": "http://api.simplegeo.com/1.0/features/SG_1bTsUWTazuzMXafreiGOGL_61.197062_-149.938161@1293731153.json", "address": "2378 Captain Cook Dr", "owner": "simplegeo", "postcode": "99517"}}
{"geometry": {"type": "Point", "coordinates": [-149.518481, 61.313379]}, "type": "Feature", "id": "SG_4jMPc36soKFfKlTjQtwsD9_61.313379_-149.518481@1293731153", "properties": {"province": "AK", "city": "Eagle River", "name": "Frontier Fire Protection LLC", "tags": ["installation", "sprinkler", "fire", "consultant", "system", "protection"], "country": "US", "classifiers": [{"category": "Professional", "type": "Services", "subcategory": "Management & Consulting"}, {"category": "Building & Trades", "type": "Services", "subcategory": "Plumbing"}], "phone": "+1 907 694 4696", "href": "http://api.simplegeo.com/1.0/features/SG_4jMPc36soKFfKlTjQtwsD9_61.313379_-149.518481@1293731153.json", "address": "19546 3rd St", "owner": "simplegeo", "postcode": "99577"}}
{"geometry": {"type": "Point", "coordinates": [-149.85314, 61.108574]}, "type": "Feature", "id": "SG_6nc8usRJbaSZt9QVJo2Wuq_61.108574_-149.853140@1293731153", "properties": {"province": "AK", "city": "Anchorage", "name": "Caffe D'Arte Dist/Sappore Inc", "tags": ["shop", "coffee"], "country": "US", "classifiers": [{"category": "Restaurant", "type": "Food & Drink", "subcategory": ""}], "phone": "+1 907 345 9369", "href": "http://api.simplegeo.com/1.0/features/SG_6nc8usRJbaSZt9QVJo2Wuq_61.108574_-149.853140@1293731153.json", "address": "1530 Huffman Rd", "owner": "simplegeo", "postcode": "99515"}}
{"geometry": {"type": "Point", "coordinates": [-131.634771, 55.341412]}, "type": "Feature", "id": "SG_1qGmPoGouuqKj4gpLrrHQX_55.341412_-131.634771@1293731153", "properties": {"province": "AK", "city": "Ketchikan", "name": "Yellow Taxi", "tags": ["taxicab"], "country": "US", "classifiers": [{"category": "Taxi", "type": "Transportation", "subcategory": ""}], "phone": "+1 907 225 0528", "href": "http://api.simplegeo.com/1.0/features/SG_1qGmPoGouuqKj4gpLrrHQX_55.341412_-131.634771@1293731153.json", "address": "531 Deermount St", "owner": "simplegeo", "postcode": "99901"}}
{"geometry": {"type": "Point", "coordinates": [-149.866831, 61.144657]}, "type": "Feature", "id": "SG_6vPJmqDgK8O07i9sfTiHSv_61.144657_-149.866831@1293731153", "properties": {"province": "AK", "city": "Anchorage", "name": "Walleen's Gallery", "tags": ["art", "gallery", "dealer"], "country": "US", "classifiers": [{"category": "Shopping", "type": "Retail Goods", "subcategory": ""}], "phone": "+1 907 336 1819", "href": "http://api.simplegeo.com/1.0/features/SG_6vPJmqDgK8O07i9sfTiHSv_61.144657_-149.866831@1293731153.json", "address": "800 E Dimond Blvd", "owner": "simplegeo", "postcode": "99515"}}
{"geometry": {"type": "Point", "coordinates": [-149.878828, 61.138274]}, "type": "Feature", "id": "SG_6ITNHGVWM8a9laHoQOuvGp_61.138274_-149.878828@1293731153", "properties": {"province": "AK", "city": "Anchorage", "name": "Stgeorge Chadux Corporation", "tags": ["fuel", "contracting", "general", "sales", "environmental"], "country": "US", "classifiers": [{"category": "Professional", "type": "Services", "subcategory": "Management & Consulting"}], "phone": "+1 907 272 9886", "href": "http://api.simplegeo.com/1.0/features/SG_6ITNHGVWM8a9laHoQOuvGp_61.138274_-149.878828@1293731153.json", "address": "9135 King St", "owner": "simplegeo", "postcode": "99515"}}
{"geometry": {"type": "Point", "coordinates": [-149.845681, 61.217549]}, "type": "Feature", "id": "SG_7GmB2IoSb91WtJN3J5sjBg_61.217549_-149.845681@1293731153", "properties": {"province": "AK", "city": "Anchorage", "name": "Chaz Limited Collision Express", "tags": ["body", "automobile", "painting"], "country": "US", "classifiers": [{"category": "Retail", "type": "Services", "subcategory": "Auto Repair"}], "phone": "+1 907 792 2500", "href": "http://api.simplegeo.com/1.0/features/SG_7GmB2IoSb91WtJN3J5sjBg_61.217549_-149.845681@1293731153.json", "address": "1801 E 5th Ave", "owner": "simplegeo", "postcode": "99501"}}
{"geometry": {"type": "Point", "coordinates": [-149.79838, 61.126756]}, "type": "Feature", "id": "SG_4ZqSSWVhK5pW8NelFHqUBf_61.126756_-149.798380@1293731153", "properties": {"province": "AK", "city": "Anchorage", "name": "K Burgess Consulting", "tags": ["consultant", "business"], "country": "US", "classifiers": [{"category": "Professional", "type": "Services", "subcategory": "Management & Consulting"}], "phone": "+1 907 346 3731", "href": "http://api.simplegeo.com/1.0/features/SG_4ZqSSWVhK5pW8NelFHqUBf_61.126756_-149.798380@1293731153.json", "address": "4535 E 104th Ave", "owner": "simplegeo", "postcode": "99507"}}
{"geometry": {"type": "Point", "coordinates": [-149.934311, 61.177219]}, "type": "Feature", "id": "SG_78mzIijksUhkmReEvRu0eC_61.177219_-149.934311@1293731153", "properties": {"province": "AK", "city": "Anchorage", "name": "Real Estate Appraisers", "tags": ["appraiser"], "country": "US", "classifiers": [{"category": "Real Estate", "type": "Services", "subcategory": "Real Estate Agent"}], "phone": "+1 907 243 6609", "href": "http://api.simplegeo.com/1.0/features/SG_78mzIijksUhkmReEvRu0eC_61.177219_-149.934311@1293731153.json", "address": "2701 Aspen Dr", "owner": "simplegeo", "postcode": "99517"}}
{"geometry": {"type": "Point", "coordinates": [-147.716124, 64.83689]}, "type": "Feature", "id": "SG_6JFOPgjAooMTOt2bH3Dwnb_64.836890_-147.716124@1293731153", "properties": {"province": "AK", "city": "Fairbanks", "name": "Advanced Pain Ctr Of Alaska", "tags": ["clinic"], "country": "US", "classifiers": [{"category": "Health Services", "type": "Services", "subcategory": "Doctor"}], "phone": "+1 907 374 6602", "href": "http://api.simplegeo.com/1.0/features/SG_6JFOPgjAooMTOt2bH3Dwnb_64.836890_-147.716124@1293731153.json", "address": "506 Gaffney Rd", "owner": "simplegeo", "postcode": "99701"}}
{"geometry": {"type": "Point", "coordinates": [-149.424977, 61.587351]}, "type": "Feature", "id": "SG_0YjMaXLlhMpiY40IHWlaXG_61.587351_-149.424977@1293731153", "properties": {"province": "AK", "city": "Wasilla", "name": "LA Fiesta Dos", "country": "US", "classifiers": [{"category": "Restaurant", "type": "Food & Drink", "subcategory": ""}], "phone": "+1 907 373 0599", "href": "http://api.simplegeo.com/1.0/features/SG_0YjMaXLlhMpiY40IHWlaXG_61.587351_-149.424977@1293731153.json", "address": "1051 Bogard Rd", "owner": "simplegeo", "postcode": "99654"}}
{"geometry": {"type": "Point", "coordinates": [-149.369303, 61.569246]}, "type": "Feature", "id": "SG_3wqYxkxAzaqvcpv9nhwcjQ_61.569246_-149.369303@1293731153", "properties": {"province": "AK", "city": "Wasilla", "name": "Lor Bud's Drywall", "tags": ["dry wall", "contractor"], "country": "US", "classifiers": [{"category": "Building & Trades", "type": "Services", "subcategory": "Construction"}], "phone": "+1 907 357 2300", "href": "http://api.simplegeo.com/1.0/features/SG_3wqYxkxAzaqvcpv9nhwcjQ_61.569246_-149.369303@1293731153.json", "address": "3170 Southview Dr", "owner": "simplegeo", "postcode": "99654"}}
{"geometry": {"type": "Point", "coordinates": [-149.91814, 61.187387]}, "type": "Feature", "id": "SG_6Yc1eLNjvJkk4IzV1YAq1Z_61.187387_-149.918140@1293731153", "properties": {"province": "AK", "city": "Anchorage", "name": "One Call Does It All", "tags": ["snow", "removal"], "country": "US", "classifiers": [{"category": "Building & Trades", "type": "Services", "subcategory": "Cleaning & Sanitation"}], "phone": "+1 907 274 6913", "href": "http://api.simplegeo.com/1.0/features/SG_6Yc1eLNjvJkk4IzV1YAq1Z_61.187387_-149.918140@1293731153.json", "address": "3608 Oregon Dr", "owner": "simplegeo", "postcode": "99517"}}
{"geometry": {"type": "Point", "coordinates": [-149.897884, 61.188231]}, "type": "Feature", "id": "SG_0DnsPDhGW5jrbE44JFicex_61.188231_-149.897884@1293731153", "properties": {"province": "AK", "city": "Anchorage", "name": "LA Luz Del Mundo", "tags": ["church"], "country": "US", "classifiers": [{"category": "Organizations", "type": "Services", "subcategory": "Religious Organization"}], "phone": "+1 907 770 6685", "href": "http://api.simplegeo.com/1.0/features/SG_0DnsPDhGW5jrbE44JFicex_61.188231_-149.897884@1293731153.json", "address": "3545 Arctic Blvd", "owner": "simplegeo", "postcode": "99503"}}
{"geometry": {"type": "Point", "coordinates": [-147.861053, 64.845344]}, "type": "Feature", "id": "SG_1KqK73ebmhHL0koyQjoLPT_64.845344_-147.861053@1293731153", "properties": {"province": "AK", "city": "Fairbanks", "name": "Flying School", "tags": ["aircraft", "school"], "country": "US", "classifiers": [{"category": "Education", "type": "Public Place", "subcategory": "Special Training"}], "phone": "+1 907 455 8250", "href": "http://api.simplegeo.com/1.0/features/SG_1KqK73ebmhHL0koyQjoLPT_64.845344_-147.861053@1293731153.json", "address": "228 Woodridge Dr", "owner": "simplegeo", "postcode": "99709"}}
{"geometry": {"type": "Point", "coordinates": [-149.359727, 61.579816]}, "type": "Feature", "id": "SG_5KcPbngQwJichOZw7tFJYi_61.579816_-149.359727@1293731153", "properties": {"province": "AK", "city": "Wasilla", "name": "Aarons Flooring & Cabinetry", "tags": ["resurfacing", "floor", "laying", "refinishing", "contractor"], "country": "US", "classifiers": [{"category": "Building & Trades", "type": "Services", "subcategory": "Construction"}], "phone": "+1 907 376 3454", "href": "http://api.simplegeo.com/1.0/features/SG_5KcPbngQwJichOZw7tFJYi_61.579816_-149.359727@1293731153.json", "address": "400 Seward Meridian Rd", "owner": "simplegeo", "postcode": "99654"}}
{"geometry": {"type": "Point", "coordinates": [-149.892293, 61.19522]}, "type": "Feature", "id": "SG_4qycYiFVzZh03JJzj5fkM4_61.195220_-149.892293@1293731153", "properties": {"province": "AK", "city": "Anchorage", "name": "CHI Of Alaska Inc", "country": "US", "classifiers": [{"category": "Insurance", "type": "Services", "subcategory": "Insurance Agent"}], "phone": "+1 907 276 7667", "href": "http://api.simplegeo.com/1.0/features/SG_4qycYiFVzZh03JJzj5fkM4_61.195220_-149.892293@1293731153.json", "address": "507 W Northern Lights Blvd", "owner": "simplegeo", "postcode": "99503"}}
{"geometry": {"type": "Point", "coordinates": [-147.81808, 64.849084]}, "type": "Feature", "id": "SG_2xDsczmCdcuRHKkkqYxlgh_64.849084_-147.818080@1293731153", "properties": {"province": "AK", "city": "Fairbanks", "name": "Crime Stoppers", "tags": ["organization", "welfare"], "country": "US", "classifiers": [{"category": "Social Services", "type": "Services", "subcategory": ""}], "phone": "+1 907 456 2583", "href": "http://api.simplegeo.com/1.0/features/SG_2xDsczmCdcuRHKkkqYxlgh_64.849084_-147.818080@1293731153.json", "address": "3875 Geist Rd", "owner": "simplegeo", "postcode": "99709"}}
{"geometry": {"type": "Point", "coordinates": [-149.895658, 61.220447]}, "type": "Feature", "id": "SG_3ixIGlpSZzQFIGhPvuYg2v_61.220447_-149.895658@1293731153", "properties": {"province": "AK", "website": "www.alaskanha.org", "name": "Alaska Natural History Assn", "tags": ["organization", "nonprofit", "educational", "dealer"], "country": "US", "classifiers": [{"category": "Museum", "type": "Entertainment", "subcategory": ""}, {"category": "Shopping", "type": "Retail Goods", "subcategory": "Books"}], "phone": "+1 907 274 8440", "href": "http://api.simplegeo.com/1.0/features/SG_3ixIGlpSZzQFIGhPvuYg2v_61.220447_-149.895658@1293731153.json", "city": "Anchorage", "address": "750 W 2nd Ave", "owner": "simplegeo", "postcode": "99501"}}
{"geometry": {"type": "Point", "coordinates": [-149.947171, 61.137552]}, "type": "Feature", "id": "SG_7RaBlqdeTH3C59bIvvbZgP_61.137552_-149.947171@1293731153", "properties": {"province": "AK", "city": "Anchorage", "name": "Maranatha Full Gospel Fllwshp", "tags": ["church"], "country": "US", "classifiers": [{"category": "Organizations", "type": "Services", "subcategory": "Religious Organization"}], "phone": "+1 907 243 2118", "href": "http://api.simplegeo.com/1.0/features/SG_7RaBlqdeTH3C59bIvvbZgP_61.137552_-149.947171@1293731153.json", "address": "3541 W Dimond Blvd", "owner": "simplegeo", "postcode": "99502"}}
{"geometry": {"type": "Point", "coordinates": [-149.827582, 61.140244]}, "type": "Feature", "id": "SG_50whelQ2zS4NWnipQEzI2k_61.140244_-149.827582@1293731153", "properties": {"province": "AK", "city": "Anchorage", "name": "Shoot-N-Edit", "tags": ["taping"], "country": "US", "classifiers": [{"category": "Communications", "type": "Services", "subcategory": "Film & Video Production"}], "phone": "+1 907 677 9001", "href": "http://api.simplegeo.com/1.0/features/SG_50whelQ2zS4NWnipQEzI2k_61.140244_-149.827582@1293731153.json", "address": "2800 North Cir", "owner": "simplegeo", "postcode": "99507"}}
{"geometry": {"type": "Point", "coordinates": [-149.893491, 61.218551]}, "type": "Feature", "id": "SG_0RPL4F636YcH4C7aTPlO1A_61.218551_-149.893491@1293731153", "properties": {"province": "AK", "website": "www.grizzlysgifts.com", "name": "Grizzly Inc", "tags": ["shop"], "country": "US", "classifiers": [{"category": "Shopping", "type": "Retail Goods", "subcategory": "Gifts & Souvenirs"}], "phone": "+1 907 276 4933", "href": "http://api.simplegeo.com/1.0/features/SG_0RPL4F636YcH4C7aTPlO1A_61.218551_-149.893491@1293731153.json", "city": "Anchorage", "address": "501 W 4th Ave", "owner": "simplegeo", "postcode": "99501"}}
{"geometry": {"type": "Point", "coordinates": [-149.886602, 61.189506]}, "type": "Feature", "id": "SG_0Uqdey2zaBO9LWG2q8yjGL_61.189506_-149.886602@1293731153", "properties": {"province": "AK", "city": "Anchorage", "name": "Cathy Hoaks", "country": "US", "classifiers": [{"category": "Insurance", "type": "Services", "subcategory": "Insurance Agent"}], "phone": "+1 907 770 2422", "href": "http://api.simplegeo.com/1.0/features/SG_0Uqdey2zaBO9LWG2q8yjGL_61.189506_-149.886602@1293731153.json", "address": "3300 C St", "owner": "simplegeo", "postcode": "99503"}}
{"geometry": {"type": "Point", "coordinates": [-149.871432, 61.212566]}, "type": "Feature", "id": "SG_3ctami1SEGW840jAd1B8rw_61.212566_-149.871432@1293731153", "properties": {"province": "AK", "city": "Anchorage", "name": "US Immigration Naturalization", "tags": ["federal", "affairs"], "country": "US", "classifiers": [{"category": "Government", "type": "Public Place", "subcategory": "Office"}], "phone": "+1 907 271 4953", "href": "http://api.simplegeo.com/1.0/features/SG_3ctami1SEGW840jAd1B8rw_61.212566_-149.871432@1293731153.json", "address": "620 E 10th Ave", "owner": "simplegeo", "postcode": "99501"}}
{"geometry": {"type": "Point", "coordinates": [-149.416883, 61.6123]}, "type": "Feature", "id": "SG_5Uu8DH9ud6vkmCCab0EJzf_61.612300_-149.416883@1293731153", "properties": {"province": "AK", "city": "Wasilla", "name": "Siekmeier & Siekmeier", "tags": ["parts", "snowmobile", "accessory"], "country": "US", "classifiers": [{"category": "Autos & Motor Vehicles", "type": "Retail Goods", "subcategory": "Automobile Sales"}], "phone": "+1 907 376 5745", "href": "http://api.simplegeo.com/1.0/features/SG_5Uu8DH9ud6vkmCCab0EJzf_61.612300_-149.416883@1293731153.json", "address": "2750 Holly Way", "owner": "simplegeo", "postcode": "99654"}}
{"geometry": {"type": "Point", "coordinates": [-149.892114, 61.156376]}, "type": "Feature", "id": "SG_7drIJ91CV33WBgvHvjfAjt_61.156376_-149.892114@1293731153", "properties": {"province": "AK", "city": "Anchorage", "name": "Hi-Tec Auto", "tags": ["repairing", "automobile"], "country": "US", "classifiers": [{"category": "Retail", "type": "Services", "subcategory": "Auto Repair"}], "phone": "+1 907 522 5656", "href": "http://api.simplegeo.com/1.0/features/SG_7drIJ91CV33WBgvHvjfAjt_61.156376_-149.892114@1293731153.json", "address": "7133 Arctic Blvd", "owner": "simplegeo", "postcode": "99518"}}
{"geometry": {"type": "Point", "coordinates": [-149.899141, 61.214685]}, "type": "Feature", "id": "SG_0K0oQ2bxYZ8zEBRZidjd2p_61.214685_-149.899141@1293731153", "properties": {"province": "AK", "website": "www.alaskadatatech.com", "name": "Alaska Data Technologies", "city": "Anchorage", "country": "US", "classifiers": [{"category": "Professional", "type": "Services", "subcategory": "Computer Services"}], "phone": "+1 907 278 8470", "href": "http://api.simplegeo.com/1.0/features/SG_0K0oQ2bxYZ8zEBRZidjd2p_61.214685_-149.899141@1293731153.json", "address": "825 W 8th Ave", "owner": "simplegeo", "postcode": "99501"}}
{"geometry": {"type": "Point", "coordinates": [-147.79233, 64.823872]}, "type": "Feature", "id": "SG_1uXowPURpvbXeXmezFDdVc_64.823872_-147.792330@1293731153", "properties": {"province": "AK", "city": "Fairbanks", "name": "Hite Inc", "tags": ["general", "contractor"], "country": "US", "classifiers": [{"category": "Building & Trades", "type": "Services", "subcategory": "Construction"}], "phone": "+1 907 474 4722", "href": "http://api.simplegeo.com/1.0/features/SG_1uXowPURpvbXeXmezFDdVc_64.823872_-147.792330@1293731153.json", "address": "2750 Picket Pl", "owner": "simplegeo", "postcode": "99709"}}
{"geometry": {"type": "Point", "coordinates": [-134.406715, 58.299691]}, "type": "Feature", "id": "SG_7b3KAEczM9q26MWgaQ6C91_58.299691_-134.406715@1293731153", "properties": {"province": "AK", "city": "Juneau", "name": "Juneau City Treasury", "tags": ["city", "taxation"], "country": "US", "classifiers": [{"category": "Government", "type": "Public Place", "subcategory": "Office"}], "phone": "+1 907 586 5261", "href": "http://api.simplegeo.com/1.0/features/SG_7b3KAEczM9q26MWgaQ6C91_58.299691_-134.406715@1293731153.json", "address": "155 S Seward St", "owner": "simplegeo", "postcode": "99801"}}
{"geometry": {"type": "Point", "coordinates": [-149.957497, 61.175637]}, "type": "Feature", "id": "SG_7YQ7oCjLthda4yMFkXbkuB_61.175637_-149.957497@1293731153", "properties": {"province": "AK", "city": "Anchorage", "name": "US Civil Aviation Security", "country": "US", "classifiers": [{"category": "Government", "type": "Public Place", "subcategory": "Office"}], "phone": "+1 907 271 2243", "href": "http://api.simplegeo.com/1.0/features/SG_7YQ7oCjLthda4yMFkXbkuB_61.175637_-149.957497@1293731153.json", "address": "4000 W 50th Ave", "owner": "simplegeo", "postcode": "99502"}}
{"geometry": {"type": "Point", "coordinates": [-156.754559, 71.298444]}, "type": "Feature", "id": "SG_25gRmTuycJ0OpVtjwADvlA_71.298444_-156.754559@1293731153", "properties": {"province": "AK", "city": "Barrow", "name": "Arctic Women In Crisis", "country": "US", "classifiers": [{"category": "Government", "type": "Public Place", "subcategory": "Office"}], "phone": "+1 907 852 0261", "href": "http://api.simplegeo.com/1.0/features/SG_25gRmTuycJ0OpVtjwADvlA_71.298444_-156.754559@1293731153.json", "address": "4470 N Star St", "owner": "simplegeo", "postcode": "99723"}}
{"geometry": {"type": "Point", "coordinates": [-150.972921, 60.470174]}, "type": "Feature", "id": "SG_2ON9s8y2Kj829HGKWbL6oy_60.470174_-150.972921@1293731153", "properties": {"province": "AK", "city": "Soldotna", "name": "Don Middleton", "tags": ["a", "boardwalk", "constructing", "fishing"], "country": "US", "classifiers": [{"category": "Building & Trades", "type": "Services", "subcategory": "Construction"}], "phone": "+1 907 262 2105", "href": "http://api.simplegeo.com/1.0/features/SG_2ON9s8y2Kj829HGKWbL6oy_60.470174_-150.972921@1293731153.json", "address": "33805 Keystone Dr", "owner": "simplegeo", "postcode": "99669"}}
{"geometry": {"type": "Point", "coordinates": [-151.075188, 60.479828]}, "type": "Feature", "id": "SG_79YGcKj3VZTDhnlGAqPHPL_60.479828_-151.075188@1293731153", "properties": {"province": "AK", "city": "Soldotna", "name": "Soldotna Little League Bingo", "tags": ["bingo", "game"], "country": "US", "classifiers": [{"category": "Recreation", "type": "Entertainment", "subcategory": ""}], "phone": "+1 907 262 5309", "href": "http://api.simplegeo.com/1.0/features/SG_79YGcKj3VZTDhnlGAqPHPL_60.479828_-151.075188@1293731153.json", "address": "44619 Sterling Hwy", "owner": "simplegeo", "postcode": "99669"}}
{"geometry": {"type": "Point", "coordinates": [-149.895797, 61.173709]}, "type": "Feature", "id": "SG_1T4mx4382UlcNyDatPBd9s_61.173709_-149.895797@1293731153", "properties": {"province": "AK", "city": "Anchorage", "name": "Memory Lane Al Spec Pet Cmtry", "country": "US", "classifiers": [{"category": "Retail", "type": "Services", "subcategory": "Animal Services"}], "phone": "+1 907 562 2999", "href": "http://api.simplegeo.com/1.0/features/SG_1T4mx4382UlcNyDatPBd9s_61.173709_-149.895797@1293731153.json", "address": "549 W International Airport Rd", "owner": "simplegeo", "postcode": "99518"}}
{"geometry": {"type": "Point", "coordinates": [-149.84296, 61.133188]}, "type": "Feature", "id": "SG_2T5X0SPoYtnwrDwQoCpTrs_61.133188_-149.842960@1293731153", "properties": {"province": "AK", "city": "Anchorage", "name": "Horizon Property Management", "tags": ["management"], "country": "US", "classifiers": [{"category": "Real Estate", "type": "Services", "subcategory": "Real Estate Agent"}], "phone": "+1 907 522 8970", "href": "http://api.simplegeo.com/1.0/features/SG_2T5X0SPoYtnwrDwQoCpTrs_61.133188_-149.842960@1293731153.json", "address": "9725 Independence Dr", "owner": "simplegeo", "postcode": "99507"}}
{"geometry": {"type": "Point", "coordinates": [-149.763336, 61.192566]}, "type": "Feature", "id": "SG_29i69u7e8DAqpB3y5LfUZo_61.192566_-149.763336@1293731153", "properties": {"province": "AK", "city": "Anchorage", "name": "Europa Painting", "tags": ["hanging", "painter", "contractor"], "country": "US", "classifiers": [{"category": "Building & Trades", "type": "Services", "subcategory": "Construction"}], "phone": "+1 907 338 1741", "href": "http://api.simplegeo.com/1.0/features/SG_29i69u7e8DAqpB3y5LfUZo_61.192566_-149.763336@1293731153.json", "address": "2821 Baxter Rd", "owner": "simplegeo", "postcode": "99504"}}
{"geometry": {"type": "Point", "coordinates": [-151.130824, 60.492556]}, "type": "Feature", "id": "SG_4CCvipHocmL4DGKl1XDUvr_60.492556_-151.130824@1293731153", "properties": {"province": "AK", "city": "Soldotna", "name": "Country Apartments", "tags": ["apartment"], "country": "US", "classifiers": [{"category": "Real Estate", "type": "Services", "subcategory": "Real Estate Operator"}], "phone": "+1 907 262 7881", "href": "http://api.simplegeo.com/1.0/features/SG_4CCvipHocmL4DGKl1XDUvr_60.492556_-151.130824@1293731153.json", "address": "35305 Poppy Ridge Rd", "owner": "simplegeo", "postcode": "99669"}}
{"geometry": {"type": "Point", "coordinates": [-134.42144, 58.301629]}, "type": "Feature", "id": "SG_518nnbUeJVUJdRIv3p2tHh_58.301629_-134.421440@1293731153", "properties": {"province": "AK", "city": "Juneau", "name": "Juneau Sports Assn", "tags": ["athletic"], "country": "US", "classifiers": [{"category": "Organizations", "type": "Services", "subcategory": "Membership Organization"}], "phone": "+1 907 463 3633", "href": "http://api.simplegeo.com/1.0/features/SG_518nnbUeJVUJdRIv3p2tHh_58.301629_-134.421440@1293731153.json", "address": "923 Glacier Ave", "owner": "simplegeo", "postcode": "99801"}}
{"geometry": {"type": "Point", "coordinates": [-132.38612, 56.465593]}, "type": "Feature", "id": "SG_2SfawjBdLekDHlGwV1CSnw_56.465593_-132.386120@1293731153", "properties": {"province": "AK", "city": "Wrangell", "name": "Breakwater Seafoods", "country": "US", "classifiers": [{"category": "Wholesale", "type": "Manufacturing & Wholesale Goods", "subcategory": "Seafood"}], "phone": "+1 907 874 3642", "href": "http://api.simplegeo.com/1.0/features/SG_2SfawjBdLekDHlGwV1CSnw_56.465593_-132.386120@1293731153.json", "address": "319 Ocean View Dr", "owner": "simplegeo", "postcode": "99929"}}
{"geometry": {"type": "Point", "coordinates": [-151.152352, 60.490104]}, "type": "Feature", "id": "SG_5jX7izshB6m0XeOK3J1XIX_60.490104_-151.152352@1293731153", "properties": {"province": "AK", "city": "Soldotna", "name": "C & C Tops & Bottoms", "tags": ["carpentry", "top", "counter", "contractor"], "country": "US", "classifiers": [{"category": "Building & Trades", "type": "Services", "subcategory": "Construction"}, {"category": "Home & Garden", "type": "Retail Goods", "subcategory": "Furniture"}], "phone": "+1 907 260 8402", "href": "http://api.simplegeo.com/1.0/features/SG_5jX7izshB6m0XeOK3J1XIX_60.490104_-151.152352@1293731153.json", "address": "35125 K B Dr", "owner": "simplegeo", "postcode": "99669"}}
{"geometry": {"type": "Point", "coordinates": [-149.897567, 61.214615]}, "type": "Feature", "id": "SG_680T0eJalZYzm7gp8jyOj7_61.214615_-149.897567@1293731153", "properties": {"province": "AK", "website": "www.lukehart.com", "name": "Eagle Strategies Corp", "tags": ["advisory", "financial"], "country": "US", "classifiers": [{"category": "Banks & Credit Unions", "type": "Services", "subcategory": "Investment Brokerage"}], "phone": "+1 907 257 5213", "href": "http://api.simplegeo.com/1.0/features/SG_680T0eJalZYzm7gp8jyOj7_61.214615_-149.897567@1293731153.json", "city": "Anchorage", "address": "701 W 8th Ave", "owner": "simplegeo", "postcode": "99501"}}
{"geometry": {"type": "Point", "coordinates": [-147.713856, 64.838894]}, "type": "Feature", "id": "SG_0qpHRiq0xP5hSmJxI8yL40_64.838894_-147.713856@1293731153", "properties": {"province": "AK", "city": "Fairbanks", "name": "Professional Pharmacy", "country": "US", "classifiers": [{"category": "Shopping", "type": "Retail Goods", "subcategory": "Pharmacy"}], "phone": "+1 907 452 2556", "href": "http://api.simplegeo.com/1.0/features/SG_0qpHRiq0xP5hSmJxI8yL40_64.838894_-147.713856@1293731153.json", "address": "1001 Noble St", "owner": "simplegeo", "postcode": "99701"}}
{"geometry": {"type": "Point", "coordinates": [-149.544637, 61.314354]}, "type": "Feature", "id": "SG_5TCf2giC22y1bmLyiVWaSB_61.314354_-149.544637@1293731153", "properties": {"province": "AK", "city": "Eagle River", "name": "Campfire Alaska Council", "tags": ["youth", "organization", "center"], "country": "US", "classifiers": [{"category": "Social Services", "type": "Services", "subcategory": ""}], "phone": "+1 907 694 3755", "href": "http://api.simplegeo.com/1.0/features/SG_5TCf2giC22y1bmLyiVWaSB_61.314354_-149.544637@1293731153.json", "address": "18001 Baronof Ave", "owner": "simplegeo", "postcode": "99577"}}
{"geometry": {"type": "Point", "coordinates": [-149.770781, 61.209796]}, "type": "Feature", "id": "SG_0Hbk9wtJQD5F4v38iqrxnY_61.209796_-149.770781@1293731153", "properties": {"province": "AK", "city": "Anchorage", "name": "AJC Construction Svc", "tags": ["general", "contractor"], "country": "US", "classifiers": [{"category": "Building & Trades", "type": "Services", "subcategory": "Construction"}], "phone": "+1 907 337 9991", "href": "http://api.simplegeo.com/1.0/features/SG_0Hbk9wtJQD5F4v38iqrxnY_61.209796_-149.770781@1293731153.json", "address": "6189 Debarr Rd", "owner": "simplegeo", "postcode": "99504"}}
{"geometry": {"type": "Point", "coordinates": [-149.886935, 61.198807]}, "type": "Feature", "id": "SG_3BEKwScShysVAY3IDV2Glb_61.198807_-149.886935@1293731153", "properties": {"province": "AK", "city": "Anchorage", "name": "Siam Spicy Thai Restaurant", "country": "US", "classifiers": [{"category": "Restaurant", "type": "Food & Drink", "subcategory": ""}], "phone": "+1 907 338 0757", "href": "http://api.simplegeo.com/1.0/features/SG_3BEKwScShysVAY3IDV2Glb_61.198807_-149.886935@1293731153.json", "address": "2409 C St", "owner": "simplegeo", "postcode": "99503"}}
{"geometry": {"type": "Point", "coordinates": [-149.79263, 61.199323]}, "type": "Feature", "id": "SG_5OqJGVWgK8T2Pq0b1cgzuq_61.199323_-149.792630@1293731153", "properties": {"province": "AK", "city": "Anchorage", "name": "Chenery's Pro Repping", "country": "US", "classifiers": [{"category": "Professional", "type": "Services", "subcategory": "Business Services"}], "phone": "+1 907 929 7913", "href": "http://api.simplegeo.com/1.0/features/SG_5OqJGVWgK8T2Pq0b1cgzuq_61.199323_-149.792630@1293731153.json", "address": "2240 Nash Cir", "owner": "simplegeo", "postcode": "99508"}}
{"geometry": {"type": "Point", "coordinates": [-152.408031, 57.788308]}, "type": "Feature", "id": "SG_4fn6HaRv6u76SCQLeO3Nv9_57.788308_-152.408031@1293731153", "properties": {"province": "AK", "city": "Kodiak", "name": "Goldsmith", "tags": ["jeweler"], "country": "US", "classifiers": [{"category": "Shopping", "type": "Retail Goods", "subcategory": "Jewelry"}], "phone": "+1 907 481 3033", "href": "http://api.simplegeo.com/1.0/features/SG_4fn6HaRv6u76SCQLeO3Nv9_57.788308_-152.408031@1293731153.json", "address": "518 Marine Way W", "owner": "simplegeo", "postcode": "99615"}}
{"geometry": {"type": "Point", "coordinates": [-143.608261, 70.126144]}, "type": "Feature", "id": "SG_0PijEMN7aGPkSJwNOSlEUX_70.126144_-143.608261@1293731153", "properties": {"province": "AK", "city": "Kaktovik", "name": "Kaktovik Presbyterian Church", "tags": ["church"], "country": "US", "classifiers": [{"category": "Organizations", "type": "Services", "subcategory": "Religious Organization"}], "phone": "+1 907 640 6612", "href": "http://api.simplegeo.com/1.0/features/SG_0PijEMN7aGPkSJwNOSlEUX_70.126144_-143.608261@1293731153.json", "address": "101 1st St", "owner": "simplegeo", "postcode": "99747"}}
{"geometry": {"type": "Point", "coordinates": [-135.34187, 57.051695]}, "type": "Feature", "id": "SG_6gX9nuxMNpd1GZsIOMQgXx_57.051695_-135.341870@1293731153", "properties": {"province": "AK", "city": "Sitka", "name": "Sitka Electronics Lab", "tags": ["equipment", "electronic", "supply"], "country": "US", "classifiers": [{"category": "Retail", "type": "Services", "subcategory": "Repair Shop"}], "phone": "+1 907 747 6570", "href": "http://api.simplegeo.com/1.0/features/SG_6gX9nuxMNpd1GZsIOMQgXx_57.051695_-135.341870@1293731153.json", "address": "232 Katlian St", "owner": "simplegeo", "postcode": "99835"}}
{"geometry": {"type": "Point", "coordinates": [-152.395174, 57.794859]}, "type": "Feature", "id": "SG_13irOG3jOXqLBJ7FQyLoNg_57.794859_-152.395174@1293731153", "properties": {"province": "AK", "city": "Kodiak", "name": "Borough Property Tax", "tags": ["city", "taxation"], "country": "US", "classifiers": [{"category": "Government", "type": "Public Place", "subcategory": "Office"}], "phone": "+1 907 486 9324", "href": "http://api.simplegeo.com/1.0/features/SG_13irOG3jOXqLBJ7FQyLoNg_57.794859_-152.395174@1293731153.json", "address": "710 Mill Bay Rd", "owner": "simplegeo", "postcode": "99615"}}
{"geometry": {"type": "Point", "coordinates": [-149.889814, 61.16312]}, "type": "Feature", "id": "SG_4u3mxdjQlNEBxp0fJIOcva_61.163120_-149.889814@1293731153", "properties": {"province": "AK", "city": "Anchorage", "name": "The Cabinet Works Inc", "tags": ["wood", "mfg"], "country": "US", "classifiers": [{"category": "Manufacturing", "type": "Manufacturing & Wholesale Goods", "subcategory": "Furniture"}], "phone": "+1 907 561 5231", "href": "http://api.simplegeo.com/1.0/features/SG_4u3mxdjQlNEBxp0fJIOcva_61.163120_-149.889814@1293731153.json", "address": "6350 Nielson Way", "owner": "simplegeo", "postcode": "99518"}}
{"geometry": {"type": "Point", "coordinates": [-149.887257, 61.203989]}, "type": "Feature", "id": "SG_6uICgMuuasUBe1ZtcIYb9E_61.203989_-149.887257@1293731153", "properties": {"province": "AK", "website": "www.voaak.org", "name": "Volunteers Of America-Alaska", "tags": ["organization", "welfare"], "country": "US", "classifiers": [{"category": "Social Services", "type": "Services", "subcategory": ""}], "phone": "+1 907 279 9634", "href": "http://api.simplegeo.com/1.0/features/SG_6uICgMuuasUBe1ZtcIYb9E_61.203989_-149.887257@1293731153.json", "city": "Anchorage", "address": "1675 C St", "owner": "simplegeo", "postcode": "99501"}}
{"geometry": {"type": "Point", "coordinates": [-149.573253, 61.322291]}, "type": "Feature", "id": "SG_06qmAMtGy0ftZesGlIcRyZ_61.322291_-149.573253@1293731153", "properties": {"province": "AK", "website": "www.remax-eagleriver-ak.com", "name": "Re/Max", "city": "Eagle River", "country": "US", "classifiers": [{"category": "Real Estate", "type": "Services", "subcategory": "Real Estate Agent"}], "phone": "+1 907 694 4200", "href": "http://api.simplegeo.com/1.0/features/SG_06qmAMtGy0ftZesGlIcRyZ_61.322291_-149.573253@1293731153.json", "address": "16600 Centerfield Dr", "owner": "simplegeo", "postcode": "99577"}}
{"geometry": {"type": "Point", "coordinates": [-149.875028, 61.220769]}, "type": "Feature", "id": "SG_6h6aU1qJPjFC8eryyClMJA_61.220769_-149.875028@1293731153", "properties": {"province": "AK", "website": "www.southcentralfoundation.org", "name": "Southcentral Foundation", "tags": ["organization", "welfare"], "country": "US", "classifiers": [{"category": "Social Services", "type": "Services", "subcategory": ""}], "phone": "+1 907 278 6619", "href": "http://api.simplegeo.com/1.0/features/SG_6h6aU1qJPjFC8eryyClMJA_61.220769_-149.875028@1293731153.json", "city": "Anchorage", "address": "225 Eagle St", "owner": "simplegeo", "postcode": "99501"}}
{"geometry": {"type": "Point", "coordinates": [-147.811807, 64.84885]}, "type": "Feature", "id": "SG_4OWZ0ZmO4sUNuloOpvsx6H_64.848850_-147.811807@1293731153", "properties": {"province": "AK", "city": "Fairbanks", "name": "Wolf Run Restaurant", "country": "US", "classifiers": [{"category": "Restaurant", "type": "Food & Drink", "subcategory": ""}], "phone": "+1 907 458 0636", "href": "http://api.simplegeo.com/1.0/features/SG_4OWZ0ZmO4sUNuloOpvsx6H_64.848850_-147.811807@1293731153.json", "address": "3360 Wolf Run", "owner": "simplegeo", "postcode": "99709"}}
{"geometry": {"type": "Point", "coordinates": [-149.462651, 61.58203]}, "type": "Feature", "id": "SG_2MvLwmXvGLF8288fYt6N3O_61.582030_-149.462651@1293731153", "properties": {"province": "AK", "website": "www.icewormrvp.com", "name": "Iceworm", "tags": ["shop"], "country": "US", "classifiers": [{"category": "Shopping", "type": "Retail Goods", "subcategory": "Gifts & Souvenirs"}], "phone": "+1 907 892 8200", "href": "http://api.simplegeo.com/1.0/features/SG_2MvLwmXvGLF8288fYt6N3O_61.582030_-149.462651@1293731153.json", "city": "Wasilla", "address": "502 W Parks Hwy", "owner": "simplegeo", "postcode": "99654"}}
{"geometry": {"type": "Point", "coordinates": [-149.872423, 61.196235]}, "type": "Feature", "id": "SG_3vKvtk1DIhsPXDOJoGNZI2_61.196235_-149.872423@1293731153", "properties": {"province": "AK", "city": "Anchorage", "name": "RSVP", "tags": ["butler", "maid"], "country": "US", "classifiers": [{"category": "Building & Trades", "type": "Services", "subcategory": "Cleaning & Sanitation"}], "phone": "+1 907 272 7787", "href": "http://api.simplegeo.com/1.0/features/SG_3vKvtk1DIhsPXDOJoGNZI2_61.196235_-149.872423@1293731153.json", "address": "2611 Fairbanks St", "owner": "simplegeo", "postcode": "99503"}}
{"geometry": {"type": "Point", "coordinates": [-134.48951, 58.356802]}, "type": "Feature", "id": "SG_3tEWlkccrb4FNT06Qwj1oF_58.356802_-134.489510@1293731153", "properties": {"province": "AK", "website": "www.juneau.org", "name": "Juneau Public Works Dept", "tags": ["marking", "maintenance", "parking"], "country": "US", "classifiers": [{"category": "Building & Trades", "type": "Services", "subcategory": "Construction"}], "phone": "+1 907 780 6888", "href": "http://api.simplegeo.com/1.0/features/SG_3tEWlkccrb4FNT06Qwj1oF_58.356802_-134.489510@1293731153.json", "city": "Juneau", "address": "5433 Shaune Dr", "owner": "simplegeo", "postcode": "99801"}}
{"geometry": {"type": "Point", "coordinates": [-149.897874, 61.17372]}, "type": "Feature", "id": "SG_6iNujKPQzOPgs9pxUzMQQs_61.173720_-149.897874@1293731153", "properties": {"province": "AK", "city": "Anchorage", "name": "Tackle Repair Ctr", "tags": ["tackle", "parts", "fishing"], "country": "US", "classifiers": [{"category": "Shopping", "type": "Retail Goods", "subcategory": "Bicycles & Sporting Goods"}], "phone": "+1 907 561 0444", "href": "http://api.simplegeo.com/1.0/features/SG_6iNujKPQzOPgs9pxUzMQQs_61.173720_-149.897874@1293731153.json", "address": "5011 Arctic Blvd", "owner": "simplegeo", "postcode": "99503"}}
{"geometry": {"type": "Point", "coordinates": [-151.086716, 60.48151]}, "type": "Feature", "id": "SG_0Ue8RkLZGBHGFU00j24JRF_60.481510_-151.086716@1293731153", "properties": {"province": "AK", "city": "Soldotna", "name": "Sikorski Consulting", "tags": ["counselor", "public", "relations"], "country": "US", "classifiers": [{"category": "Professional", "type": "Services", "subcategory": "Management & Consulting"}], "phone": "+1 907 262 6462", "href": "http://api.simplegeo.com/1.0/features/SG_0Ue8RkLZGBHGFU00j24JRF_60.481510_-151.086716@1293731153.json", "address": "315 S Kobuk St", "owner": "simplegeo", "postcode": "99669"}}
{"geometry": {"type": "Point", "coordinates": [-149.765378, 61.218435]}, "type": "Feature", "id": "SG_5xEUhTYqm3kkx9TBtgy7VD_61.218435_-149.765378@1293731153", "properties": {"province": "AK", "city": "Anchorage", "name": "DHR Group", "country": "US", "classifiers": [{"category": "Real Estate", "type": "Services", "subcategory": "Real Estate Agent"}], "phone": "+1 907 278 1906", "href": "http://api.simplegeo.com/1.0/features/SG_5xEUhTYqm3kkx9TBtgy7VD_61.218435_-149.765378@1293731153.json", "address": "6019 Driftwood Ave", "owner": "simplegeo", "postcode": "99504"}}
{"geometry": {"type": "Point", "coordinates": [-133.067872, 55.550624]}, "type": "Feature", "id": "SG_1S7MqfYqdugyOfGtJymaiy_55.550624_-133.067872@1293731153", "properties": {"province": "AK", "website": "www.fireweedlodge.com", "name": "Fireweed Lodge", "tags": ["resort"], "country": "US", "classifiers": [{"category": "Travel", "type": "Entertainment", "subcategory": "Hotels & Motels"}], "phone": "+1 907 755 2930", "href": "http://api.simplegeo.com/1.0/features/SG_1S7MqfYqdugyOfGtJymaiy_55.550624_-133.067872@1293731153.json", "city": "Klawock", "address": "7 Hollis Rd", "owner": "simplegeo", "postcode": "99925"}}
{"geometry": {"type": "Point", "coordinates": [-149.897408, 61.218479]}, "type": "Feature", "id": "SG_17QPwGvJCVs9nvVLJTItBn_61.218479_-149.897408@1293731153", "properties": {"province": "AK", "city": "Anchorage", "name": "Representative Pete Kott", "country": "US", "classifiers": [{"category": "Government", "type": "Public Place", "subcategory": "Office"}], "phone": "+1 907 269 0155", "href": "http://api.simplegeo.com/1.0/features/SG_17QPwGvJCVs9nvVLJTItBn_61.218479_-149.897408@1293731153.json", "address": "716 W 4th Ave", "owner": "simplegeo", "postcode": "99501"}}
{"geometry": {"type": "Point", "coordinates": [-152.600862, 57.703109]}, "type": "Feature", "id": "SG_07sKqsAYVqGo5tjDrXzlEt_57.703109_-152.600862@1293731153", "properties": {"province": "AK", "city": "Kodiak", "name": "Carver Geologic", "tags": ["consultant", "geological"], "country": "US", "classifiers": [{"category": "Professional", "type": "Services", "subcategory": ""}], "phone": "+1 907 487 4551", "href": "http://api.simplegeo.com/1.0/features/SG_07sKqsAYVqGo5tjDrXzlEt_57.703109_-152.600862@1293731153.json", "address": "12021 Middle Bay Dr", "owner": "simplegeo", "postcode": "99615"}}
{"geometry": {"type": "Point", "coordinates": [-147.829489, 64.83537]}, "type": "Feature", "id": "SG_6K7bkRNqgh1fCvsFdeCjRP_64.835370_-147.829489@1293731153", "properties": {"province": "AK", "website": "www.harleyoutpost.com", "name": "Harley-Davidson Inc", "tags": ["leather"], "country": "US", "classifiers": [{"category": "Shopping", "type": "Retail Goods", "subcategory": "Clothing, Apparel, & Fashions"}], "phone": "+1 907 456 3265", "href": "http://api.simplegeo.com/1.0/features/SG_6K7bkRNqgh1fCvsFdeCjRP_64.835370_-147.829489@1293731153.json", "city": "Fairbanks", "address": "1450 Karen Way", "owner": "simplegeo", "postcode": "99709"}}
{"geometry": {"type": "Point", "coordinates": [-147.747285, 64.844179]}, "type": "Feature", "id": "SG_1LOJrRfDLsBRYxbUndbxOf_64.844179_-147.747285@1293731153", "properties": {"province": "AK", "city": "Fairbanks", "name": "Fairbanks Drama Assoc", "tags": ["organization", "arts", "information"], "country": "US", "classifiers": [{"category": "Museum", "type": "Entertainment", "subcategory": ""}], "phone": "+1 907 456 7529", "href": "http://api.simplegeo.com/1.0/features/SG_1LOJrRfDLsBRYxbUndbxOf_64.844179_-147.747285@1293731153.json", "address": "1852 2nd Ave", "owner": "simplegeo", "postcode": "99701"}}
{"geometry": {"type": "Point", "coordinates": [-149.863906, 61.14056]}, "type": "Feature", "id": "SG_4Z5C36TOTGo1bzVpFB1yNT_61.140560_-149.863906@1293731153", "properties": {"province": "AK", "website": "www.thesportsauthority.com", "name": "Sports Authority", "city": "Anchorage", "country": "US", "classifiers": [{"category": "Shopping", "type": "Retail Goods", "subcategory": "Bicycles & Sporting Goods"}], "phone": "+1 907 349 6881", "href": "http://api.simplegeo.com/1.0/features/SG_4Z5C36TOTGo1bzVpFB1yNT_61.140560_-149.863906@1293731153.json", "address": "8931 Old Seward Hwy", "owner": "simplegeo", "postcode": "99515"}}
{"geometry": {"type": "Point", "coordinates": [-149.86621, 61.183428]}, "type": "Feature", "id": "SG_4eLp8qn7DqZ1pHz80t2lNj_61.183428_-149.866210@1293731153", "properties": {"province": "AK", "city": "Anchorage", "name": "Steelhead Custom Landscaping", "tags": ["landscape", "contractor"], "country": "US", "classifiers": [{"category": "Building & Trades", "type": "Services", "subcategory": "Landscaping Services"}], "phone": "+1 907 346 4600", "href": "http://api.simplegeo.com/1.0/features/SG_4eLp8qn7DqZ1pHz80t2lNj_61.183428_-149.866210@1293731153.json", "address": "4141 Ingra St", "owner": "simplegeo", "postcode": "99503"}}
{"geometry": {"type": "Point", "coordinates": [-134.414446, 58.300177]}, "type": "Feature", "id": "SG_7H0mIQYZHNSECr6Q7D1xPD_58.300177_-134.414446@1293731153", "properties": {"province": "AK", "website": "www.museums.state.ak.us", "name": "State Museum", "city": "Juneau", "country": "US", "classifiers": [{"category": "Museum", "type": "Entertainment", "subcategory": ""}], "phone": "+1 907 465 2901", "href": "http://api.simplegeo.com/1.0/features/SG_7H0mIQYZHNSECr6Q7D1xPD_58.300177_-134.414446@1293731153.json", "address": "395 Whittier St", "owner": "simplegeo", "postcode": "99801"}}
{"geometry": {"type": "Point", "coordinates": [-147.720934, 64.842738]}, "type": "Feature", "id": "SG_7JzL27OKQiyylm6TeTN1rq_64.842738_-147.720934@1293731153", "properties": {"province": "AK", "city": "Fairbanks", "name": "Winfree Law Office", "tags": ["attorney"], "country": "US", "classifiers": [{"category": "Professional", "type": "Services", "subcategory": "Lawyer & Legal Services"}], "phone": "+1 907 451 6500", "href": "http://api.simplegeo.com/1.0/features/SG_7JzL27OKQiyylm6TeTN1rq_64.842738_-147.720934@1293731153.json", "address": "301 Cushman St", "owner": "simplegeo", "postcode": "99701"}}
{"geometry": {"type": "Point", "coordinates": [-134.382722, 58.269552]}, "type": "Feature", "id": "SG_5dONTSzZpzfWABlFTmYLNB_58.269552_-134.382722@1293731153", "properties": {"province": "AK", "city": "Douglas", "name": "Rickey & Assoc", "tags": ["consultant", "fishery"], "country": "US", "classifiers": [{"category": "Farming", "type": "Manufacturing & Wholesale Goods", "subcategory": "Aquatic Farm"}], "phone": "+1 907 586 2442", "href": "http://api.simplegeo.com/1.0/features/SG_5dONTSzZpzfWABlFTmYLNB_58.269552_-134.382722@1293731153.json", "address": "112 5th St", "owner": "simplegeo", "postcode": "99824"}}
{"geometry": {"type": "Point", "coordinates": [-149.870471, 61.155485]}, "type": "Feature", "id": "SG_6kOLK0GRhocdC72wwAt1zO_61.155485_-149.870471@1293731153", "properties": {"province": "AK", "city": "Anchorage", "name": "Seakers", "tags": ["expediters"], "country": "US", "classifiers": [{"category": "Airline", "type": "Transportation", "subcategory": ""}], "phone": "+1 907 562 7099", "href": "http://api.simplegeo.com/1.0/features/SG_6kOLK0GRhocdC72wwAt1zO_61.155485_-149.870471@1293731153.json", "address": "846 E 72nd Ave", "owner": "simplegeo", "postcode": "99518"}}
{"geometry": {"type": "Point", "coordinates": [-149.551149, 61.315411]}, "type": "Feature", "id": "SG_6TJAs8mOX6rGNLgyc8osTe_61.315411_-149.551149@1293731153", "properties": {"province": "AK", "city": "Eagle River", "name": "Sunshine Generation", "tags": ["instruction", "dancing"], "country": "US", "classifiers": [{"category": "Education", "type": "Public Place", "subcategory": "Dance Studio"}], "phone": "+1 907 694 6356", "href": "http://api.simplegeo.com/1.0/features/SG_6TJAs8mOX6rGNLgyc8osTe_61.315411_-149.551149@1293731153.json", "address": "17757 Chilkat Ct", "owner": "simplegeo", "postcode": "99577"}}
{"geometry": {"type": "Point", "coordinates": [-131.728987, 55.377672]}, "type": "Feature", "id": "SG_4ZhvSiVp9nTsnDQPQS7e6b_55.377672_-131.728987@1293731153", "properties": {"province": "AK", "city": "Ketchikan", "name": "Alaska Diving Svc Inc", "tags": ["diver"], "country": "US", "classifiers": [{"category": "Professional", "type": "Services", "subcategory": "Business Services"}], "phone": "+1 907 225 3667", "href": "http://api.simplegeo.com/1.0/features/SG_4ZhvSiVp9nTsnDQPQS7e6b_55.377672_-131.728987@1293731153.json", "address": "5194 Shoreline Dr", "owner": "simplegeo", "postcode": "99901"}}
{"geometry": {"type": "Point", "coordinates": [-131.672077, 55.34934]}, "type": "Feature", "id": "SG_3qTaWrd8WxIuw5Va2J4rrq_55.349340_-131.672077@1293731153", "properties": {"province": "AK", "city": "Ketchikan", "name": "Recovery Center-Alcoholsim Drg", "tags": ["rehabilitation"], "country": "US", "classifiers": [{"category": "Social Services", "type": "Services", "subcategory": "Job Training"}], "phone": "+1 907 247 4330", "href": "http://api.simplegeo.com/1.0/features/SG_3qTaWrd8WxIuw5Va2J4rrq_55.349340_-131.672077@1293731153.json", "address": "126 Washington St", "owner": "simplegeo", "postcode": "99901"}}
{"geometry": {"type": "Point", "coordinates": [-149.5713, 61.318147]}, "type": "Feature", "id": "SG_3binU8JlnU0SorucQt7lEP_61.318147_-149.571300@1293731153", "properties": {"province": "AK", "city": "Eagle River", "name": "Representative Pete Kott", "country": "US", "classifiers": [{"category": "Government", "type": "Public Place", "subcategory": "Office"}], "phone": "+1 907 694 8944", "href": "http://api.simplegeo.com/1.0/features/SG_3binU8JlnU0SorucQt7lEP_61.318147_-149.571300@1293731153.json", "address": "10928 Eagle River Rd", "owner": "simplegeo", "postcode": "99577"}}
{"geometry": {"type": "Point", "coordinates": [-134.406581, 58.303048]}, "type": "Feature", "id": "SG_1H4YzXt1ZlntFx1KYK4Dya_58.303048_-134.406581@1293731153", "properties": {"province": "AK", "city": "Juneau", "name": "Sabel Media", "tags": ["taping"], "country": "US", "classifiers": [{"category": "Communications", "type": "Services", "subcategory": "Film & Video Production"}], "phone": "+1 907 586 1319", "href": "http://api.simplegeo.com/1.0/features/SG_1H4YzXt1ZlntFx1KYK4Dya_58.303048_-134.406581@1293731153.json", "address": "416 Harris St", "owner": "simplegeo", "postcode": "99801"}}
{"geometry": {"type": "Point", "coordinates": [-161.736032, 60.791489]}, "type": "Feature", "id": "SG_2G1efqmMQpHAyd7TaCcBHU_60.791489_-161.736032@1293731153", "properties": {"province": "AK", "city": "Bethel", "name": "Dos Guys Boat Shop", "tags": ["repairing", "boat"], "country": "US", "classifiers": [{"category": "Recreation", "type": "Entertainment", "subcategory": "Marina"}], "phone": "+1 907 543 2057", "href": "http://api.simplegeo.com/1.0/features/SG_2G1efqmMQpHAyd7TaCcBHU_60.791489_-161.736032@1293731153.json", "address": "264 East Ave", "owner": "simplegeo", "postcode": "99559"}}
{"geometry": {"type": "Point", "coordinates": [-149.879142, 61.198176]}, "type": "Feature", "id": "SG_5rFbrgAfySMZngrmF1IvHA_61.198176_-149.879142@1293731153", "properties": {"province": "AK", "city": "Anchorage", "name": "Richard Cobb & Assoc", "country": "US", "classifiers": [{"category": "Real Estate", "type": "Services", "subcategory": "Architect"}], "phone": "+1 907 276 1996", "href": "http://api.simplegeo.com/1.0/features/SG_5rFbrgAfySMZngrmF1IvHA_61.198176_-149.879142@1293731153.json", "address": "225 E Fireweed Ln", "owner": "simplegeo", "postcode": "99503"}}
{"geometry": {"type": "Point", "coordinates": [-147.722214, 64.828498]}, "type": "Feature", "id": "SG_0N8tZjJEDbna41sGvLKqq5_64.828498_-147.722214@1293731153", "properties": {"province": "AK", "city": "Fairbanks", "name": "Borealis Kids Day Care", "country": "US", "classifiers": [{"category": "Social Services", "type": "Services", "subcategory": "Child Care"}], "phone": "+1 907 374 9355", "href": "http://api.simplegeo.com/1.0/features/SG_0N8tZjJEDbna41sGvLKqq5_64.828498_-147.722214@1293731153.json", "address": "2025 Blueberry St", "owner": "simplegeo", "postcode": "99701"}}
{"geometry": {"type": "Point", "coordinates": [-149.913114, 61.184592]}, "type": "Feature", "id": "SG_1b99FJ3dlT0DKr9Ew1QbQ5_61.184592_-149.913114@1293731153", "properties": {"province": "AK", "city": "Anchorage", "name": "In The Pocket", "tags": ["center"], "country": "US", "classifiers": [{"category": "Sports & Exercise", "type": "Entertainment", "subcategory": "Bowling"}], "phone": "+1 907 562 9740", "href": "http://api.simplegeo.com/1.0/features/SG_1b99FJ3dlT0DKr9Ew1QbQ5_61.184592_-149.913114@1293731153.json", "address": "3717 Minnesota Dr", "owner": "simplegeo", "postcode": "99503"}}
{"geometry": {"type": "Point", "coordinates": [-149.77151, 61.207457]}, "type": "Feature", "id": "SG_0xXIIpYqv0TShb2FR386JI_61.207457_-149.771510@1293731153", "properties": {"province": "AK", "city": "Anchorage", "name": "Wee B's Catering", "country": "US", "classifiers": [{"category": "Restaurant", "type": "Food & Drink", "subcategory": ""}], "phone": "+1 907 522 1260", "href": "http://api.simplegeo.com/1.0/features/SG_0xXIIpYqv0TShb2FR386JI_61.207457_-149.771510@1293731153.json", "address": "1260 O'Malley Rd", "owner": "simplegeo", "postcode": "99515"}}
{"geometry": {"type": "Point", "coordinates": [-149.926918, 61.183928]}, "type": "Feature", "id": "SG_0l4J2P8NK2kipuc0X0jHI2_61.183928_-149.926918@1293731153", "properties": {"province": "AK", "city": "Anchorage", "name": "Spenard Motel", "country": "US", "classifiers": [{"category": "Travel", "type": "Entertainment", "subcategory": "Hotels & Motels"}], "phone": "+1 907 243 6917", "href": "http://api.simplegeo.com/1.0/features/SG_0l4J2P8NK2kipuc0X0jHI2_61.183928_-149.926918@1293731153.json", "address": "3960 Spenard Rd", "owner": "simplegeo", "postcode": "99517"}}
{"geometry": {"type": "Point", "coordinates": [-147.724354, 64.822417]}, "type": "Feature", "id": "SG_7ZDthx2bw0WYlPkHkH3bx0_64.822417_-147.724354@1293731153", "properties": {"province": "AK", "city": "Fairbanks", "name": "Sheridan Apartments", "tags": ["apartment"], "country": "US", "classifiers": [{"category": "Real Estate", "type": "Services", "subcategory": "Real Estate Operator"}], "phone": "+1 907 456 3826", "href": "http://api.simplegeo.com/1.0/features/SG_7ZDthx2bw0WYlPkHkH3bx0_64.822417_-147.724354@1293731153.json", "address": "909 27th Ave", "owner": "simplegeo", "postcode": "99701"}}
{"geometry": {"type": "Point", "coordinates": [-149.894458, 61.170611]}, "type": "Feature", "id": "SG_4v5DpRezL6vaN9iEe3ZVtT_61.170611_-149.894458@1293731153", "properties": {"province": "AK", "website": "www.smythmoving.com", "name": "Smyth Moving Svc Inc", "tags": ["storage"], "country": "US", "classifiers": [{"category": "Freight", "type": "Transportation", "subcategory": ""}], "phone": "+1 907 561 1842", "href": "http://api.simplegeo.com/1.0/features/SG_4v5DpRezL6vaN9iEe3ZVtT_61.170611_-149.894458@1293731153.json", "city": "Anchorage", "address": "624 W Potter Dr", "owner": "simplegeo", "postcode": "99518"}}
{"geometry": {"type": "Point", "coordinates": [-149.903818, 61.216682]}, "type": "Feature", "id": "SG_5pDYlq14fyERd40NG09vIJ_61.216682_-149.903818@1293731153", "properties": {"province": "AK", "city": "Anchorage", "name": "Lawyer Referral Svc", "tags": ["attorney"], "country": "US", "classifiers": [{"category": "Professional", "type": "Services", "subcategory": "Lawyer & Legal Services"}], "phone": "+1 907 272 0352", "href": "http://api.simplegeo.com/1.0/features/SG_5pDYlq14fyERd40NG09vIJ_61.216682_-149.903818@1293731153.json", "address": "510 L St", "owner": "simplegeo", "postcode": "99501"}}
{"geometry": {"type": "Point", "coordinates": [-149.893481, 61.216584]}, "type": "Feature", "id": "SG_6KEP8z2W2y4ZOZQW9WnQVC_61.216584_-149.893481@1293731153", "properties": {"province": "AK", "city": "Anchorage", "name": "Firenze Design", "tags": ["interior", "consultant", "design", "decorator"], "country": "US", "classifiers": [{"category": "Professional", "type": "Services", "subcategory": "Business Services"}], "phone": "+1 907 563 7953", "href": "http://api.simplegeo.com/1.0/features/SG_6KEP8z2W2y4ZOZQW9WnQVC_61.216584_-149.893481@1293731153.json", "address": "500 W 6th Ave", "owner": "simplegeo", "postcode": "99501"}}
{"geometry": {"type": "Point", "coordinates": [-134.426683, 58.304517]}, "type": "Feature", "id": "SG_52hGDvMrDNAwqJ0P0FoDJU_58.304517_-134.426683@1293731153", "properties": {"province": "AK", "city": "Juneau", "name": "Southeast Dental Group", "tags": ["dentist"], "country": "US", "classifiers": [{"category": "Health Services", "type": "Services", "subcategory": "Doctor"}], "phone": "+1 907 586 9586", "href": "http://api.simplegeo.com/1.0/features/SG_52hGDvMrDNAwqJ0P0FoDJU_58.304517_-134.426683@1293731153.json", "address": "1600 Glacier Ave", "owner": "simplegeo", "postcode": "99801"}}
{"geometry": {"type": "Point", "coordinates": [-131.653113, 55.344075]}, "type": "Feature", "id": "SG_1Jdjnrd2nxZXTmsNOJy7Jv_55.344075_-131.653113@1293731153", "properties": {"province": "AK", "website": "www.afa-advisors.com", "name": "Alaska Financial Advisors", "tags": ["consultant", "planning", "financial"], "country": "US", "classifiers": [{"category": "Banks & Credit Unions", "type": "Services", "subcategory": "Investment Brokerage"}], "phone": "+1 907 225 0619", "href": "http://api.simplegeo.com/1.0/features/SG_1Jdjnrd2nxZXTmsNOJy7Jv_55.344075_-131.653113@1293731153.json", "city": "Ketchikan", "address": "809 Water St", "owner": "simplegeo", "postcode": "99901"}}
{"geometry": {"type": "Point", "coordinates": [-149.898031, 61.191053]}, "type": "Feature", "id": "SG_1YsmezMvdpMMQKaLskzS3V_61.191053_-149.898031@1293731153", "properties": {"province": "AK", "city": "Anchorage", "name": "Pacific North Management", "country": "US", "classifiers": [{"category": "Real Estate", "type": "Services", "subcategory": "Real Estate Agent"}], "phone": "+1 907 561 4580", "href": "http://api.simplegeo.com/1.0/features/SG_1YsmezMvdpMMQKaLskzS3V_61.191053_-149.898031@1293731153.json", "address": "3300 Arctic Blvd", "owner": "simplegeo", "postcode": "99503"}}
{"geometry": {"type": "Point", "coordinates": [-131.721239, 55.408796]}, "type": "Feature", "id": "SG_7gQNb1OB6Mpouy9XHSKm0Z_55.408796_-131.721239@1293731153", "properties": {"province": "AK", "city": "Ketchikan", "name": "Southeast Construction Inc", "tags": ["excavating"], "country": "US", "classifiers": [{"category": "Building & Trades", "type": "Services", "subcategory": "Construction"}], "phone": "+1 907 247 1151", "href": "http://api.simplegeo.com/1.0/features/SG_7gQNb1OB6Mpouy9XHSKm0Z_55.408796_-131.721239@1293731153.json", "address": "7446 N Tongass Hwy", "owner": "simplegeo", "postcode": "99928"}}
{"geometry": {"type": "Point", "coordinates": [-161.767774, 60.793714]}, "type": "Feature", "id": "SG_3Hyk9GXd2l99gBFSeYt4xY_60.793714_-161.767774@1293731153", "properties": {"province": "AK", "city": "Bethel", "name": "Moravian Bible Seminary", "tags": ["church"], "country": "US", "classifiers": [{"category": "Organizations", "type": "Services", "subcategory": "Religious Organization"}], "phone": "+1 907 543 4382", "href": "http://api.simplegeo.com/1.0/features/SG_3Hyk9GXd2l99gBFSeYt4xY_60.793714_-161.767774@1293731153.json", "address": "461 3rd Ave", "owner": "simplegeo", "postcode": "99559"}}
{"geometry": {"type": "Point", "coordinates": [-149.845802, 61.138947]}, "type": "Feature", "id": "SG_4XsIecQJKPwRuXEnRobMNR_61.138947_-149.845802@1293731153", "properties": {"province": "AK", "city": "Anchorage", "name": "Tes/Ghemm Company Joint Ventr", "tags": ["plant", "power"], "country": "US", "classifiers": [{"category": "Building & Trades", "type": "Services", "subcategory": "Construction"}], "phone": "+1 907 365 6299", "href": "http://api.simplegeo.com/1.0/features/SG_4XsIecQJKPwRuXEnRobMNR_61.138947_-149.845802@1293731153.json", "address": "2121 Abbott Rd", "owner": "simplegeo", "postcode": "99507"}}
{"geometry": {"type": "Point", "coordinates": [-149.868154, 61.185683]}, "type": "Feature", "id": "SG_1AefJ49DtqgoHfqizP2JIP_61.185683_-149.868154@1293731153", "properties": {"province": "AK", "city": "Anchorage", "name": "Safeway", "tags": ["grocer"], "country": "US", "classifiers": [{"category": "Food & Beverages", "type": "Retail Goods", "subcategory": "Groceries & Convenience Stores"}], "phone": "+1 907 561 7540", "href": "http://api.simplegeo.com/1.0/features/SG_1AefJ49DtqgoHfqizP2JIP_61.185683_-149.868154@1293731153.json", "address": "3801 Old Seward Hwy", "owner": "simplegeo", "postcode": "99503"}}
{"geometry": {"type": "Point", "coordinates": [-149.891516, 61.213908]}, "type": "Feature", "id": "SG_55NO9oeTJiK9Z6IMRx7B0a_61.213908_-149.891516@1293731153", "properties": {"province": "AK", "city": "Anchorage", "name": "Kim J Stohr", "tags": ["attorney"], "country": "US", "classifiers": [{"category": "Professional", "type": "Services", "subcategory": "Lawyer & Legal Services"}], "phone": "+1 907 274 0265", "href": "http://api.simplegeo.com/1.0/features/SG_55NO9oeTJiK9Z6IMRx7B0a_61.213908_-149.891516@1293731153.json", "address": "828 E St", "owner": "simplegeo", "postcode": "99501"}}
{"geometry": {"type": "Point", "coordinates": [-149.710932, 61.09983]}, "type": "Feature", "id": "SG_0NT0h679C00xDLLX7E4hVu_61.099830_-149.710932@1293731153", "properties": {"province": "AK", "city": "Anchorage", "name": "Lewis Mechanical Inc", "tags": ["mechanical", "contractor"], "country": "US", "classifiers": [{"category": "Building & Trades", "type": "Services", "subcategory": "Plumbing"}], "phone": "+1 907 561 9997", "href": "http://api.simplegeo.com/1.0/features/SG_0NT0h679C00xDLLX7E4hVu_61.099830_-149.710932@1293731153.json", "address": "13240 View Heights Way", "owner": "simplegeo", "postcode": "99516"}}
{"geometry": {"type": "Point", "coordinates": [-149.901647, 61.217563]}, "type": "Feature", "id": "SG_2oJZOLmD9m8OQASzOGmvd1_61.217563_-149.901647@1293731153", "properties": {"province": "AK", "city": "Anchorage", "name": "Sandwich Deck", "country": "US", "classifiers": [{"category": "Restaurant", "type": "Food & Drink", "subcategory": ""}], "phone": "+1 907 276 1401", "href": "http://api.simplegeo.com/1.0/features/SG_2oJZOLmD9m8OQASzOGmvd1_61.217563_-149.901647@1293731153.json", "address": "400 K St", "owner": "simplegeo", "postcode": "99501"}}
{"geometry": {"type": "Point", "coordinates": [-149.834289, 61.159825]}, "type": "Feature", "id": "SG_6M82VBiMmtgZn0KNF2dwFe_61.159825_-149.834289@1293731153", "properties": {"province": "AK", "city": "Anchorage", "name": "Five Star Automotive Repair", "tags": ["repairing", "automobile"], "country": "US", "classifiers": [{"category": "Retail", "type": "Services", "subcategory": "Auto Repair"}], "phone": "+1 907 349 2629", "href": "http://api.simplegeo.com/1.0/features/SG_6M82VBiMmtgZn0KNF2dwFe_61.159825_-149.834289@1293731153.json", "address": "6614 Lake Otis Pkwy", "owner": "simplegeo", "postcode": "99507"}}
{"geometry": {"type": "Point", "coordinates": [-151.549654, 59.64372]}, "type": "Feature", "id": "SG_4uLF8acK0SJ5z1LUSFXsiN_59.643720_-151.549654@1293731153", "properties": {"province": "AK", "city": "Homer", "name": "Public Assistance Div", "tags": ["state", "resource"], "country": "US", "classifiers": [{"category": "Government", "type": "Public Place", "subcategory": "Office"}], "phone": "+1 907 235 6132", "href": "http://api.simplegeo.com/1.0/features/SG_4uLF8acK0SJ5z1LUSFXsiN_59.643720_-151.549654@1293731153.json", "address": "270 W Pioneer Ave", "owner": "simplegeo", "postcode": "99603"}}
{"geometry": {"type": "Point", "coordinates": [-149.884368, 61.182098]}, "type": "Feature", "id": "SG_7362fKXpXaIFMvwblzp7ff_61.182098_-149.884368@1293731153", "properties": {"province": "AK", "city": "Anchorage", "name": "Kluane Construction Inc", "tags": ["dam", "contractor", "moving", "highway", "earth", "general", "road"], "country": "US", "classifiers": [{"category": "Building & Trades", "type": "Services", "subcategory": "Construction"}], "phone": "+1 907 562 0189", "href": "http://api.simplegeo.com/1.0/features/SG_7362fKXpXaIFMvwblzp7ff_61.182098_-149.884368@1293731153.json", "address": "4141 B St", "owner": "simplegeo", "postcode": "99503"}}
{"geometry": {"type": "Point", "coordinates": [-135.331984, 57.051185]}, "type": "Feature", "id": "SG_49ykHHBnOwou08z4kwTLub_57.051185_-135.331984@1293731153", "properties": {"province": "AK", "city": "Sitka", "name": "Work & Rugged Gear Store", "country": "US", "classifiers": [{"category": "Shopping", "type": "Retail Goods", "subcategory": "Clothing, Apparel, & Fashions"}], "phone": "+1 907 747 6238", "href": "http://api.simplegeo.com/1.0/features/SG_49ykHHBnOwou08z4kwTLub_57.051185_-135.331984@1293731153.json", "address": "407 Lincoln St", "owner": "simplegeo", "postcode": "99835"}}
{"geometry": {"type": "Point", "coordinates": [-151.485525, 59.655116]}, "type": "Feature", "id": "SG_6KziQJX3aoPzb2lvN6id8o_59.655116_-151.485525@1293731153", "properties": {"province": "AK", "city": "Homer", "name": "Brown's Sure-Lock Of Homer", "tags": ["lock", "locksmith"], "country": "US", "classifiers": [{"category": "Retail", "type": "Services", "subcategory": "Repair Shop"}], "phone": "+1 907 235 7070", "href": "http://api.simplegeo.com/1.0/features/SG_6KziQJX3aoPzb2lvN6id8o_59.655116_-151.485525@1293731153.json", "address": "2158 Aspen Ln", "owner": "simplegeo", "postcode": "99603"}}
{"geometry": {"type": "Point", "coordinates": [-145.75851, 60.54474]}, "type": "Feature", "id": "SG_02rDeR3rkQT6zRvjw6hVoN_60.544740_-145.758510@1293731153", "properties": {"province": "AK", "website": "www.copperriver.org", "name": "Copper River Watershed Project", "tags": ["economic", "analysis"], "country": "US", "classifiers": [{"category": "Professional", "type": "Services", "subcategory": "Research"}], "phone": "+1 907 424 3334", "href": "http://api.simplegeo.com/1.0/features/SG_02rDeR3rkQT6zRvjw6hVoN_60.544740_-145.758510@1293731153.json", "city": "Cordova", "address": "511 1st St", "owner": "simplegeo", "postcode": "99574"}}
{"geometry": {"type": "Point", "coordinates": [-147.662634, 64.895731]}, "type": "Feature", "id": "SG_41zjjWrpIGtrh7ns6kemRN_64.895731_-147.662634@1293731153", "properties": {"province": "AK", "city": "Fairbanks", "name": "Best Welding Svc", "tags": ["welding"], "country": "US", "classifiers": [{"category": "Retail", "type": "Services", "subcategory": "Repair Shop"}], "phone": "+1 907 457 2410", "href": "http://api.simplegeo.com/1.0/features/SG_41zjjWrpIGtrh7ns6kemRN_64.895731_-147.662634@1293731153.json", "address": "710 McGrath Rd", "owner": "simplegeo", "postcode": "99712"}}
{"geometry": {"type": "Point", "coordinates": [-149.951802, 61.137492]}, "type": "Feature", "id": "SG_7kG8Dz3qTwDhnnCbx491JL_61.137492_-149.951802@1293731153", "properties": {"province": "AK", "city": "Anchorage", "name": "Holiday Express Stores", "country": "US", "classifiers": [{"category": "Food & Beverages", "type": "Retail Goods", "subcategory": "Groceries & Convenience Stores"}], "phone": "+1 907 243 5639", "href": "http://api.simplegeo.com/1.0/features/SG_7kG8Dz3qTwDhnnCbx491JL_61.137492_-149.951802@1293731153.json", "address": "8803 Jewel Lake Rd", "owner": "simplegeo", "postcode": "99502"}}
{"geometry": {"type": "Point", "coordinates": [-149.963419, 61.15838]}, "type": "Feature", "id": "SG_2idYP9SS2eLBgDBB7z3nem_61.158380_-149.963419@1293731153", "properties": {"province": "AK", "city": "Anchorage", "name": "D G Engstrom & Assoc", "country": "US", "classifiers": [{"category": "Real Estate", "type": "Services", "subcategory": "Real Estate Agent"}], "phone": "+1 907 243 3972", "href": "http://api.simplegeo.com/1.0/features/SG_2idYP9SS2eLBgDBB7z3nem_61.158380_-149.963419@1293731153.json", "address": "7140 Whitehall St", "owner": "simplegeo", "postcode": "99502"}}
{"geometry": {"type": "Point", "coordinates": [-149.865107, 61.166466]}, "type": "Feature", "id": "SG_5OOycyqNsD7n3dpMU7gBT0_61.166466_-149.865107@1293731153", "properties": {"province": "AK", "city": "Anchorage", "name": "Ubik Broadcasting Corp", "tags": ["company", "broadcasting"], "country": "US", "classifiers": [{"category": "Communications", "type": "Services", "subcategory": "Radio Station"}], "phone": "+1 907 562 8119", "href": "http://api.simplegeo.com/1.0/features/SG_5OOycyqNsD7n3dpMU7gBT0_61.166466_-149.865107@1293731153.json", "address": "907 E Dowling Rd", "owner": "simplegeo", "postcode": "99518"}}
{"geometry": {"type": "Point", "coordinates": [-149.430761, 60.137552]}, "type": "Feature", "id": "SG_7aNwUEWJltxKyjuRpp8gaV_60.137552_-149.430761@1293731153", "properties": {"province": "AK", "city": "Seward", "name": "Harmony Bed & Breakfast", "tags": ["breakfast", "accommodation", "bed"], "country": "US", "classifiers": [{"category": "Travel", "type": "Entertainment", "subcategory": "Hotels & Motels"}], "phone": "+1 907 224 3661", "href": "http://api.simplegeo.com/1.0/features/SG_7aNwUEWJltxKyjuRpp8gaV_60.137552_-149.430761@1293731153.json", "address": "2411 Spruce St", "owner": "simplegeo", "postcode": "99664"}}
{"geometry": {"type": "Point", "coordinates": [-147.763903, 64.846132]}, "type": "Feature", "id": "SG_1olhOKgGn9dT4cCtkyp6Ez_64.846132_-147.763903@1293731153", "properties": {"province": "AK", "city": "Fairbanks", "name": "Wallpaper Warehouse", "tags": ["wallpaper"], "country": "US", "classifiers": [{"category": "Home & Garden", "type": "Retail Goods", "subcategory": "Building Materials"}], "phone": "+1 907 451 8247", "href": "http://api.simplegeo.com/1.0/features/SG_1olhOKgGn9dT4cCtkyp6Ez_64.846132_-147.763903@1293731153.json", "address": "1988 Phillips Field Rd", "owner": "simplegeo", "postcode": "99701"}}
{"geometry": {"type": "Point", "coordinates": [-149.866831, 61.144657]}, "type": "Feature", "id": "SG_6E6FiA4olR6xCeqZZnbM7P_61.144657_-149.866831@1293731153", "properties": {"province": "AK", "city": "Anchorage", "name": "Handcrafted Holiday Gallery", "tags": ["shop"], "country": "US", "classifiers": [{"category": "Shopping", "type": "Retail Goods", "subcategory": "Gifts & Souvenirs"}], "phone": "+1 907 349 9627", "href": "http://api.simplegeo.com/1.0/features/SG_6E6FiA4olR6xCeqZZnbM7P_61.144657_-149.866831@1293731153.json", "address": "800 E Dimond Blvd", "owner": "simplegeo", "postcode": "99515"}}
{"geometry": {"type": "Point", "coordinates": [-134.418235, 58.300572]}, "type": "Feature", "id": "SG_3mlVNFhwZO2edAamG6pR5O_58.300572_-134.418235@1293731153", "properties": {"province": "AK", "city": "Juneau", "name": "Sante Chez", "tags": ["therapist", "massage"], "country": "US", "classifiers": [{"category": "Personal", "type": "Services", "subcategory": ""}], "phone": "+1 907 586 8600", "href": "http://api.simplegeo.com/1.0/features/SG_3mlVNFhwZO2edAamG6pR5O_58.300572_-134.418235@1293731153.json", "address": "641 W Willoughby Ave", "owner": "simplegeo", "postcode": "99801"}}
{"geometry": {"type": "Point", "coordinates": [-149.890478, 61.168774]}, "type": "Feature", "id": "SG_4O5WY8hkS9A5qpsHaXUMnM_61.168774_-149.890478@1293731153", "properties": {"province": "AK", "city": "Anchorage", "name": "STI Alaska Inc", "tags": ["material", "fireproofing"], "country": "US", "classifiers": [{"category": "Manufacturing", "type": "Manufacturing & Wholesale Goods", "subcategory": "Chemicals & Compounds"}], "phone": "+1 907 561 8351", "href": "http://api.simplegeo.com/1.0/features/SG_4O5WY8hkS9A5qpsHaXUMnM_61.168774_-149.890478@1293731153.json", "address": "720 W 58th Ave", "owner": "simplegeo", "postcode": "99518"}}
{"geometry": {"type": "Point", "coordinates": [-149.881303, 61.214631]}, "type": "Feature", "id": "SG_39LOupKtQsUXSBDI9iRVP6_61.214631_-149.881303@1293731153", "properties": {"province": "AK", "city": "Anchorage", "name": "Condo Line", "country": "US", "classifiers": [{"category": "Real Estate", "type": "Services", "subcategory": "Real Estate Agent"}], "phone": "+1 907 646 0525", "href": "http://api.simplegeo.com/1.0/features/SG_39LOupKtQsUXSBDI9iRVP6_61.214631_-149.881303@1293731153.json", "address": "702 Barrow St", "owner": "simplegeo", "postcode": "99501"}}
{"geometry": {"type": "Point", "coordinates": [-149.433439, 61.579571]}, "type": "Feature", "id": "SG_4yyYPDSS5YW1UDIocseBIr_61.579571_-149.433439@1293731153", "properties": {"province": "AK", "city": "Wasilla", "name": "State Legislature", "country": "US", "classifiers": [{"category": "Government", "type": "Public Place", "subcategory": "Office"}], "phone": "+1 907 376 3704", "href": "http://api.simplegeo.com/1.0/features/SG_4yyYPDSS5YW1UDIocseBIr_61.579571_-149.433439@1293731153.json", "address": "600 E Railroad Ave", "owner": "simplegeo", "postcode": "99654"}}
{"geometry": {"type": "Point", "coordinates": [-149.868924, 61.207731]}, "type": "Feature", "id": "SG_3JiuhcWtxJHTwRgtZtqpfI_61.207731_-149.868924@1293731153", "properties": {"province": "AK", "city": "Anchorage", "name": "Anna's Health Foods", "tags": ["health", "diet"], "country": "US", "classifiers": [{"category": "Food & Beverages", "type": "Retail Goods", "subcategory": "Specialty"}], "phone": "+1 907 277 2662", "href": "http://api.simplegeo.com/1.0/features/SG_3JiuhcWtxJHTwRgtZtqpfI_61.207731_-149.868924@1293731153.json", "address": "1403 Hyder St", "owner": "simplegeo", "postcode": "99501"}}
{"geometry": {"type": "Point", "coordinates": [-149.919565, 61.185572]}, "type": "Feature", "id": "SG_6y8S4GCiawRWMxEya6Q5j1_61.185572_-149.919565@1293731153", "properties": {"province": "AK", "city": "Anchorage", "name": "Ivy & Co Architects", "country": "US", "classifiers": [{"category": "Real Estate", "type": "Services", "subcategory": "Architect"}], "phone": "+1 907 563 5656", "href": "http://api.simplegeo.com/1.0/features/SG_6y8S4GCiawRWMxEya6Q5j1_61.185572_-149.919565@1293731153.json", "address": "3835 Spenard Rd", "owner": "simplegeo", "postcode": "99517"}}
{"geometry": {"type": "Point", "coordinates": [-147.643459, 64.882164]}, "type": "Feature", "id": "SG_5Vxmvoq0JL72Q7UodxdQBB_64.882164_-147.643459@1293731153", "properties": {"province": "AK", "city": "Fairbanks", "name": "Shields Rental Ctr", "tags": ["yard"], "country": "US", "classifiers": [{"category": "Building & Trades", "type": "Services", "subcategory": "Equipment Rental"}], "phone": "+1 907 457 3226", "href": "http://api.simplegeo.com/1.0/features/SG_5Vxmvoq0JL72Q7UodxdQBB_64.882164_-147.643459@1293731153.json", "address": "310 Birch Hill Rd", "owner": "simplegeo", "postcode": "99712"}}
{"geometry": {"type": "Point", "coordinates": [-149.871631, 61.189588]}, "type": "Feature", "id": "SG_1MxmlsrI6LbsAvqM37KpSV_61.189588_-149.871631@1293731153", "properties": {"province": "AK", "city": "Anchorage", "name": "Kidsmile", "tags": ["dentist"], "country": "US", "classifiers": [{"category": "Health Services", "type": "Services", "subcategory": "Doctor"}], "phone": "+1 907 272 1144", "href": "http://api.simplegeo.com/1.0/features/SG_1MxmlsrI6LbsAvqM37KpSV_61.189588_-149.871631@1293731153.json", "address": "625 E 34th Ave", "owner": "simplegeo", "postcode": "99503"}}
